id,name,latitude,longitude,website
13391742,Streiti,64.7298413,-13.9856468,
17022899,Tacking Point Lighthouse,-31.4756057,152.9372555,
17898241,Wick South,58.4390491,-3.0788798,
21270143,Macduff Pier,57.6709383,-2.500036,
25141160,Pāvilostas dienvidu mola bāka,56.8931109,21.1647929,
26383899,Barrenjoey Lighthouse,-33.5801879,151.3298266,
26479019,,64.1528606,-21.9320938,
29062672,Nash Point,51.4008239,-3.5521149,https://www.trinityhouse.co.uk/lighthouses/nash_point.html?tab=visitor
29207612,Faro de Punta Juan Graje,28.6683651,-17.9626196,
29822096,Faro de Torres,43.5718966,-5.6992345,
30606352,,-41.1765841,146.362988,
31289203,Lindesnes fyr,57.9824978,7.0466733,
31428565,,38.1935287,15.5741907,
31991991,Neuer Leuchtturm,53.5887593,6.6621342,
32897707,,62.0077021,-6.7631626,
33264622,,-35.0941453,150.80432,
33280565,Cape Roger Curtis Lighthouse,49.339997,-123.4329117,
33616122,Cape Byron Lighthouse,-28.6385613,153.6363335,
35345986,Far de Capdepera,39.7156656,3.4774429,
38557306,Sklinna fyr,65.2020391,10.9951459,
46500819,Rosherville (Parriwi Head),-33.8121422,151.2463495,
49527318,Faro de la Mesa Roldán,36.9417012,-1.9067104,
50023665,Quermarkenfeuer Norddorf,54.6691577,8.3085535,
54745778,,-34.1283233,18.4512432,
54745781,,-34.1281516,18.4507931,
60312138,Woodman Light,-32.1308661,115.7697163,
60314355,North Mole Lighthouse,-32.0538826,115.7245495,
60657724,New Brighton (Perch Rock) Lighthouse,53.4443,-3.0423016,
83948618,,38.3845805,20.7018875,
87885579,North Ronaldsay Lighthouse,59.38966,-2.3813879,
91866525,Cape Louros,36.8904414,27.3376076,
97496336,Faros,38.2450876,21.7256674,
97610242,Smoky Cape,-30.92285,153.0874871,
97637286,Nobbys Lighthouse,-32.9185696,151.7984008,
100170985,Faro de Vidio,43.5932592,-6.2429968,
117081598,Phare de la Jument,48.4222263,-5.133903,
150846874,Leasowe Lighthouse,53.4131624,-3.1257644,
158644867,Selkirk Lighthouse,43.5740174,-76.202089,
161602850,Stevns Fyr,36.838988,-86.181307,
171910059,Faro del Toston,28.7154387,-14.0137559,
174203769,Faro di Piave Vecchia,45.4785418,12.5832172,
175990174,,57.1456419,-2.0613638,
186196279,Point Danger Lighthouse,-28.1649985,153.5507619,
194470712,Cape Wrath,58.6254769,-4.9991625,https://www.visitcapewrath.com/around-cape-wrath/the-lighthouse/
196052488,Farol da Guia,38.6956107,-9.4464095,
199182482,Farol do Cabo de São Vicente,37.0229153,-8.9963966,
206196246,Sandgerði,64.0400281,-22.7140564,
206258158,Escarceo Point Lighthouse,13.5213996,120.9921426,
221017098,Sule Skerry Lighthouse,59.0847125,-4.4073436,
224428856,Leuchtturm Amrum,54.6311729,8.3547086,
241788412,,57.6805176,-2.9608505,
244078632,Timeball Tower,-37.8668477,144.9127089,
244371009,,60.7391476,17.3191366,
249332339,Faro Gianicolo,41.8947424,12.4608699,
249407984,Punta Ballena,-0.17388,-80.3257286,
251025333,,53.7189665,-0.234469,
251386900,Punta de ses Crestes,39.4140232,3.2706504,
252033066,,-37.2614302,150.0493746,
254197330,Sumburgh Head Lighthouse,59.8540763,-1.2748792,
254519723,Esha Ness Lighthouse,60.4893067,-1.6272629,
255359392,Phare de Pen-Men,47.6474101,-3.5093175,
255577387,Patos Island Light,48.7890332,-122.9713794,https://lighthousefriends.com/light.asp?ID=103
255756917,Faro di Capo Santa Maria di Leuca,39.7958972,18.3684146,
257496036,Deer Island Light,42.3398479,-70.9545077,
257496037,Hyannis Harbor Light,41.6362804,-70.2884497,
257496038,Butler Flats Light,41.6037948,-70.894482,
257496039,Long Island Head Light,42.3302159,-70.9576735,
257496041,Palmer Island Light,41.6269401,-70.909123,
257496042,Tarpaulin Cove Light,41.4688143,-70.7574965,
257496043,Edgartown Harbor Light,41.3908772,-70.5030608,
257496044,Bird Island Light,41.6692995,-70.7173225,
257496045,Marblehead Light,42.5054252,-70.8336721,
257496047,Bakers Island Light,42.5364685,-70.7859464,
257496048,Ned'S Point Light,41.650872,-70.7956506,
257496052,Bass River Light (West Dennis Light),41.6517311,-70.1691725,
257496053,Buzzards Bay Entrance Light,41.3969902,-71.0347895,
257496061,Three Sisters Light #1,41.8590422,-69.9571623,
257496067,Sandy Neck Light,41.7226492,-70.2809248,
257496068,Wings Neck Light,41.6802469,-70.6612135,
257496069,Chatham Light,41.6714041,-69.9498826,
257496076,Cape Poge (Pogue) Light,41.4199303,-70.4523604,
257496078,Three Sisters Light #2,41.8594469,-69.9570765,
257496086,Fort Pickering Light,42.5264843,-70.866462,
257496087,Three Sisters Light #3,41.8598524,-69.956983,
257496088,Sankaty Head Light,41.2843916,-69.9662374,
257496089,Cuttyhunk Light,41.4144982,-70.9495702,
257496090,Stage Harbor Light,41.6587059,-69.9836957,
257496091,Cleveland East Ledge Light,41.6309637,-70.6941783,
259439071,,40.9204835,9.5667293,
260660854,Leuchtturm Pelzerhaken,54.0855391,10.8669082,
262792987,New Lighthouse,13.0397156,80.2794416,
263426390,Grosse Ile North Channel Range Front Light,42.1681746,-83.1399325,
265049730,孫崎灯台,34.2391428,134.6431933,
265613303,Cape Columbine lighthouse,-32.8277168,17.8555341,
267904359,Cape du Couedic Lighthouse,-36.0579706,136.7051452,
268897689,Waipapa Point Lighthouse,-46.6600622,168.8470512,
268968708,Milnerton Lighthouse,-33.881708,18.4877808,
269331345,,50.7783104,-1.0890453,
269343948,Lynmouth Foreland Lighthouse,51.2455341,-3.786597,
270344693,,45.8833282,10.8430112,
270743118,Leuchtfeuer Fedderwardersiel,53.5991563,8.3583364,
270824306,Faro di Capel Rosso,42.3207509,10.9197806,
270999676,,44.4919138,12.2841277,
271322766,Phare de la Pietra,42.6445598,8.9320839,
271925372,Nordborg Fyr,55.0779631,9.7112446,
274070169,Far de Formentor,39.9613679,3.212287,
275019099,,46.1629815,-1.2773107,
275049016,Phare de Nividic,48.445639,-5.1509064,
275714830,,56.4228841,-5.4840063,
276320028,Burlington Light South,44.4700005,-73.2256601,
276611856,Skervuile Lighthouse,55.8741803,-5.8308703,
277060613,Faro di Ancona,43.6228135,13.5157166,
277063575,Faro di Fano,43.8510574,13.0153769,
277366315,Ulla fyr,62.6850992,6.1651272,
277658479,,50.5424837,-3.4968407,
278577264,,43.8641558,-78.8222613,
278605200,Faro do Roncudo,43.274917,-8.990514,
278650794,Leitfeuer Nebel,54.6453259,8.3612109,
278680435,Kaiserschleuse Ostfeuer (Pingelturm),53.5536501,8.5599427,
278773863,,52.5270395,-9.9295222,
278862447,Cloch Lighthouse,55.9423494,-4.8787982,
279399049,Far des cap de Barbaria,38.6411172,1.3895245,
279464803,,42.3966174,-8.8010949,
279937798,Leuchtturm Podersdorf,47.8604368,16.8266273,
280275246,Antennenträger Schillig (ehem.Oberfeuer),53.7004313,8.0214639,
280710576,,43.4136613,-8.1757566,
280776476,,53.6459214,7.1482638,
281356861,Grotto Point Lighthouse,-33.8177323,151.2615567,
281596262,Phare solaire du Cap Cerbère,42.4395194,3.1766797,
281755658,Faro di Capo Mele,43.9552935,8.1721735,
281984905,,65.6972701,23.096964,
282049360,Faro di Portofino,44.2986619,9.2183732,
282358637,Alnes fyr,62.4899617,5.9673277,
282532243,Big Tub Lighthouse,45.2576784,-81.6727817,http://www.brucecoastlighthouses.com/lighthouses/big-tub-lighthouse/
282640509,Danger Point Lighthouse,-34.6304138,19.3024855,
282687469,,38.9330765,-0.0926552,
283046956,Egypt Point Light (Disused),50.7672992,-1.3138958,
283073859,Leuchtfeuer Dahmeshöved,54.2017768,11.0902386,
283421552,Farol de Santa Marta,-28.6042142,-48.8139584,
283479609,,54.0721498,-4.6492515,
283514747,,54.0727857,-4.6502231,
283671333,Sassnitz Ostmolenfeuer,54.5060122,13.6373423,
285662722,Hvalnesviti,64.4022432,-14.5401157,
286746302,Chanonry Lighthouse,57.5740327,-4.0927545,
286764100,,24.3715493,120.5800717,
287046728,,55.5173054,-5.0606881,
289010448,Belle Tout lighthouse,50.7382917,0.2146282,
289101759,Petersdorf Oberfeuer,54.1310098,12.1209537,
289118554,樫野埼灯台,33.4716039,135.861936,
289356575,Faro de Cabo de Gata,36.7216544,-2.1928803,
290802041,Morant Point Lighthouse,17.9184021,-76.1843645,
290802756,Portland Lighthouse,17.7422211,-77.1576291,
291364668,منارة بيروت,33.9000392,35.4698382,
291856650,Leuchtturm Falshöft,54.7670672,9.9650675,http://www.leuchtturm-falshoeft.de/
291915007,Crinan Lighthouse,56.0912731,-5.5561339,
292606892,Schwarzer Leuchtturm,53.1866083,8.5349123,
292607038,,53.1937672,8.5185243,
292974704,,45.4407869,10.6919865,
292997524,,42.7608508,10.8775261,
293027220,,36.4000749,25.405643,
293153688,Leuchtturm Schausende,54.8617534,9.5735171,
293258283,Токаревский маяк,43.0731382,131.8431093,
293470313,Phare de la Petite Muette,48.5803709,-2.5716296,
294714575,,43.1172056,5.9291911,
295555890,Juelssand,53.6216162,9.5560747,
296911109,Phare de l'Espiguette,43.4876805,4.1417581,
297459180,,43.9900158,22.8850652,
297884112,Latarnia morska Jastarnia,54.700237,18.681619,
297930373,,44.3941575,8.9319241,
298864979,Faro di Punta Vagno,44.391973,8.9526946,
299044661,Faro di San Venerio,44.0264656,9.8493734,
299357507,Phare du Cap Blanc,43.0885338,6.362861,
299924532,McArthur's Head Lighthouse,55.7638536,-6.0477853,
300473594,Oakville Lighthouse,43.4394377,-79.665399,
300515200,,54.4157087,-4.3681062,
301240357,Buchan Ness lighthouse,57.4704426,-1.7744572,
301623088,Fischereihafen-Oberfeuer,53.5213823,8.5847618,
302061994,,35.4781944,23.5675372,
302319490,Faro di Capo d'Anzio,41.4457956,12.6217163,
302449621,Ilha Escalvada,-20.7002783,-40.4068333,
303038539,,39.9301554,9.713317,
303046595,Leuchtfeuer Ueckermünde,53.7510643,14.0700584,
303930882,,44.4174819,8.8388285,
304585668,,35.5144386,23.638591,
304589285,56,35.4782483,23.5675119,
305056632,Cape Jarvis Lighthouse,-35.6037502,138.0944804,
305265936,Elafonisi Lighthouse,35.268509,23.524154,
305588916,Cape Willoughby Lighthouse,-35.8428388,138.1327736,
307064700,,35.222714,23.6775514,
307064736,,35.2232962,23.6778355,
307378401,,11.9901989,102.3745868,
307806837,Faro de Cabo de Palos,37.6346889,-0.6902651,
309284093,,43.7682131,15.679619,
309907456,Kovalam Lighthouse,8.3828903,76.9796488,
310085225,Φάρος Κρανάης,36.7543647,22.5757735,
310478619,Crowdy Head Lighthouse,-31.8434294,152.7535728,
310513486,Old Lighthouse,54.1180041,-0.08961,
311481583,Cape Santiago Lighthouse,13.7719167,120.6530833,
311651873,Bruce Bay,46.2824331,-83.7809152,
312374758,,39.9686414,0.0278338,
312399257,Far Moll de Costa,39.9728995,0.0155796,
312538088,,54.9720267,9.7434436,
313126882,Bonnet Island Lighthouse,-42.2233011,145.2222442,
313126883,Entrance Island Lighthouse,-42.2109342,145.2155456,
313163510,Hamburger Leuchtturm,53.8720057,8.7083519,
313628643,,-33.9550156,25.6388565,
315384868,Punta de Clavitos,28.0801066,-17.3313312,
316058290,,35.2845127,139.5648215,
316518668,Faro del Cerro Santa Ana,-2.1808795,-79.8754992,
316624604,Minicoy Island Light House,8.2693766,73.0260912,
316636664,Parsons Point,6.7546729,93.836871,
316739839,Pigeon Point Light,37.1817414,-122.3938851,
316774553,,51.1140833,1.3229667,
316963656,,29.2401477,-13.4704201,
318441760,Point Stephens Lighthouse,-32.7470489,152.201385,
318475725,Inner Light,-32.7103476,152.1614092,
319280140,Faro di Monte Poro,42.7277869,10.2373364,
321991598,Farol de São Lourenço,32.729873,-16.6567444,
322118873,Môle Nord (Bâbord),47.7915097,-4.2850516,
322481116,Pulicat Lighthouse,13.4212564,80.3261476,
322520614,Howth Lighthouse,53.3940913,-6.0668424,
322520615,Mizen Head Lighthouse,51.4501258,-9.8195885,
322520617,Dun Laoghaire East Lighthouse,53.3024253,-6.1270552,
322520619,Valentia Front Leading Light,51.92537,-10.3067503,
322520620,Straw Island Lighthouse,53.1180064,-9.6307899,
322520621,Chaine Tower Lighthouse,54.8545,-5.797967,
322520623,Inishowen Lighthouse,55.2258654,-6.9290046,
322520624,Black Head (Clare),53.1538954,-9.2649505,
322520625,Ardnakinna Point Lighthouse,51.6184724,-9.9181261,
322520627,Maidens Lighthouse,54.9291337,-5.7278176,
322520628,Vidal Bank Leading Light,54.029983,-6.09055,
322520629,Rathlin East (Altacarry Head) Lighthouse,55.3015803,-6.1711214,
322520637,Bull Rock Lighthouse,51.5917781,-10.3011347,
322520639,Dun Laoghaire West Lighthouse,53.3032287,-6.1308793,
322520643,Sheep's Head Lighthouse,51.542842,-9.8486088,
322520644,Muglins Lighthouse,53.275568,-6.0758445,
322520646,Roancarrigmore Lighthouse,51.653,-9.747,
322520650,Dunree Lighthouse,55.19805,-7.5541399,
322520654,Saint John's Point,54.5693388,-8.459921,
322520666,Tuskar Lighthouse,52.2029602,-6.2069989,
322520672,Kish Lighthouse,53.310833,-5.9257,
322520675,Green Island Leading Light,54.03265,-6.0959,
322520676,Castletownbere Lighthouse,51.64629,-9.9052697,
322520677,Charlesfort Lighthouse,51.6957364,-8.4996355,
322520679,Youghal Lighthouse,51.9428654,-7.8420461,
322520691,Haulbowline Lighthouse,54.019932,-6.079,
322520692,Cromwell Point Lighthouse,51.9337397,-10.3211774,
322520693,Ballinacourty Point Lighthouse,52.0781281,-7.5529837,
322520694,Inishtearaght Lighthouse,52.0756543,-10.6612176,
322520699,Fanad Head Lighthouse,55.2762031,-7.6319899,
322520700,Copper Point Lighthouse,51.5041152,-9.5342274,
322520701,Kilcredaun Head Lighthouse,52.58015,-9.710217,
322520702,Lower Rosses Lighthouse,54.3286203,-8.5726802,
322520703,Crookhaven Lighthouse,51.47655,-9.70455,
322520707,Dundalk Lighthouse,53.976,-6.295233,
322520708,Angus Rock Lighthouse,54.3305828,-5.5253315,
322520710,Dunmore East Lighthouse,52.1488247,-6.9894176,
322520713,Achillbeg Lighthouse,53.858145,-9.9472797,
322520714,Cashla Bay Dir. Light,53.2639,-9.566367,
322520715,Little Samphire Island Lighthouse,52.2708475,-9.8817151,
322520717,Teach Solais Inis Oírr,53.0462724,-9.5262932,
322520718,Ballycotton Lighthouse,51.8256104,-7.9842263,
322520722,Fastnet Lighthouse,51.3891918,-9.6028899,
322520727,Mionn Ard,51.9928567,-7.5864951,
322520728,Donaghadee Lighthouse,54.6450474,-5.530921,
322520730,Rue Point Lighthouse,55.2588406,-6.1912487,
322767085,Farol da Fortaleza de Santa Cruz,-22.9379526,-43.1343108,
323068109,,11.3432326,124.1112115,
323150651,Phare des Mamelles,14.7237837,-17.5018488,
323609232,Ormoc Lighthouse,11.0031258,124.6101318,
324508456,Rauðinúpur,66.5084645,-16.5429516,
324559793,Faro di Capo Ferrato,39.2993359,9.6335565,
327319341,El morro,11.2503348,-74.2303223,
330968733,Dungeness Old Lighthouse,50.9137445,0.9697067,
330968736,Dungeness Lighthouse,50.9134441,0.97594,
331368444,Burnham-on-Sea Low Lighthouse,51.248404,-3.005913,
332134451,Herd Groyne Lighthouse,55.0079851,-1.4240442,
332711664,,54.3170127,13.0987655,
332745817,,54.318633,13.0980829,
334328297,,28.1096673,-14.4908266,
335708225,Eggegrunds fyr,60.7288111,17.5572082,
339261891,Leuchtfeuer Otterndorf/ Belum,53.8260027,8.9011295,https://www.leuchtturm-atlas.de/HTML/OtternT.html
339664362,Dovercourt High Lighthouse,51.9304382,1.2753765,
339664364,Dovercourt Low Lighthouse,51.9301163,1.2781423,
340022906,Harmajan majakka,60.1050056,24.9755802,
340384841,Oberfeuer Belum,53.8347438,8.9558143,https://www.leuchtturm-atlas.de/HTML/Belum_T.html
340385005,Radar WSD,53.8267669,8.9574876,
340478960,,48.1713244,16.9813165,
342240702,Berwick Lighthouse,55.7647778,-1.9841667,
343079270,,44.7069038,37.4555068,
344559082,South Breakwater Light,43.2241122,-86.3469566,
344560064,South Pierhead Light,43.2266717,-86.34133,
345518542,Faro Cabo Espíritu Santo,-52.6589607,-68.6068965,
345518842,Faro Punta Delgada,-52.4558419,-69.5448795,
345519969,Faro Isla Magdalena,-52.918996,-70.5755887,
345841515,Farol de Salinópolis,-0.6157057,-47.3567848,
348069056,Môle Ouest Léchiagat,47.7908359,-4.2861591,
348069074,Môle Sud (Tribord),47.7908779,-4.2847793,
348098427,Sassnitz Westmolenfeuer / Unterfeuer,54.5082396,13.6366243,
348302658,Faro de San Telmo,36.8284531,-2.4923186,
348522765,Feu Antérieur,47.7905972,-4.2846445,
350509083,Beachy Head Lighthouse,50.7337669,0.2414829,
352842146,Phare de Taguermess,33.8227966,11.042774,
353234476,Far del Cap de Sant Antoni,38.8031536,0.197264,
353352238,Leuchtturm Büsum,54.1268185,8.8582651,
353581493,,53.3423634,-3.8689267,
353954167,Cabo Prior,43.5676461,-8.3145437,
353958266,,43.3106961,13.7282517,
353978514,New Lighthouse,12.615361,80.191784,
355722885,Leuchtturm Barßel,53.1688162,7.7349739,
357284280,Marsh Island Light,46.214116,-123.6199831,
358260354,Padanaram Breakwater,41.5741231,-70.9392719,
358356239,Blockhusudden,59.3207673,18.1549076,
358940376,Siilinkarin Majakka,61.5175688,23.7539174,
360831664,Зуйково,52.5626702,156.3086844,
364101774,Faro de Punta Frouxeira,43.6180679,-8.1883646,
364573830,Table Cape Lighthouse,-40.9465316,145.7291353,
365040912,Far del Cap de Creus,42.3189131,3.3159172,
365467022,Peez,54.1608037,12.1604333,
366205503,Leuchtfeuer Buk,54.1318994,11.6937179,http://leuchtturm-bastorf.de
366321719,Far del Fangar,40.7904485,0.7684275,
366588870,St. Catherine's Lighthouse,50.5756153,-1.2978382,
367136352,Morgan Point Lighthouse,41.3163072,-71.9871809,
367309384,Leith West Breakwater Lighthouse,55.9891854,-3.1846765,
367452464,,66.0762821,-18.6489379,
367452790,,66.0765851,-18.6472571,
367794388,Eagle Island Light,44.2176546,-68.7677902,
367794389,Egg Rock Light Station,44.3542469,-68.1380649,
367795272,Goat Island Light Station,43.3575865,-70.4256058,
367795273,Lubec Channel Light Station,44.8417467,-66.9791452,
367795292,Bear Island Light Station,44.2834261,-68.2699054,
367795294,Deer Island Thorofare Light Station,44.134369,-68.7032531,
367795300,Burnt Coat Harbor Lighthouse,44.1344915,-68.4476379,
368062706,Fire Island Lighthouse Visitors Center,40.6324499,-73.2185823,
368062710,Westfield Electric Light Station,42.3286111,-79.5794444,
368174433,Memorial Lighthouse,41.0572606,-124.1486894,
368385584,সেন্ট মার্টিন দ্বীপ বাতিঘর,20.632719,92.3200517,
368391877,Diamond Head Lighthouse,21.2556924,-157.809503,https://www.pacificarea.uscg.mil/Organizations/District-14/
369740843,Môle Est (tribord),47.7940396,-4.3497645,
370696150,,50.0646714,1.3690166,
370948544,,57.3537217,-5.8564102,
373113881,Leuchtturm Kalkgrund,54.8246118,9.8880016,
374141240,Quoin Light,-34.7806055,19.6395676,
377696419,Kärrholm 's fyr / majakka,60.2008588,22.1368133,
385027415,,43.3928453,-79.7057974,
387102136,,-24.1148421,152.7118443,
387744952,,33.9542667,134.6990296,
388215533,Taigh-solais Eilean Glas,57.8568937,-6.6419659,https://www.nlb.org.uk/lighthouses/eilean-glas/
388517872,Punta Candieira,43.7108327,-8.0470945,
390379091,Oberfeuer Tinsdal,53.566011,9.7401047,
390486744,"The Lighthouse, Roker Cliff Park",54.9311958,-1.3661364,
390728471,Torre del Cabo de Huertas,38.3529835,-0.404856,
391546836,Farol das Rocas,-3.8558808,-33.8174944,
393013063,,45.4711296,10.5431763,
393422517,Glückstadt Unterfeuer,53.8051302,9.4042609,
394039333,Kjeungskjæret fyr,63.7267984,9.5310006,
399909338,,34.2799352,132.7558962,
400699453,Santa Cruz West Breakwater Light,36.9607033,-122.002185,
401630316,,34.2809627,135.0004547,
402350938,若狭高浜島堤燈台,35.4967835,135.5503272,
402519377,,40.6013003,-74.1084973,
403871706,Mutton Island Lighthouse,53.254061,-9.0535366,
405862305,,36.8198703,-2.444132,
408909566,Diaz Point,-26.6364837,15.0929265,
409765393,Faro di Capo Spartivento,38.8777534,8.8453319,
409822882,,60.2006655,22.1581122,
410335840,Heidkate-Warnfeuer,54.4340523,10.3169262,
410699630,Faro de Llanes,43.4201408,-4.7480979,
410871527,Coquille River Lighthouse,43.1239007,-124.4242348,https://lighthousefriends.com/light.asp?ID=127
411613101,Fort Wadsworth Light,40.6058119,-74.0539435,
411711267,St. Abbs Lighthouse,55.9162155,-2.1387843,
411861307,New Dorp Light,40.5807873,-74.1201209,
411871155,Princes Bay Light,40.5076781,-74.213388,
414678633,Latarnia morska Darłowo,54.4403358,16.3785579,
416063852,Penedos de São Pedro e São Paulo,0.9168696,-29.345932,
417972894,,43.5346838,4.1322543,
417972902,,43.5351922,4.1318141,
418444729,Hudson/Athens Light,42.2519918,-73.8087383,
418621659,,-55.9635495,-67.2208155,
419511853,Cape Bruny Lighthouse,-43.4910851,147.1422481,
420152049,,53.1163219,12.886646,
420358346,,44.3033446,9.21409,
421317970,,42.2465344,19.0919927,
421634834,,52.0051073,-4.9809299,
422030915,,58.5147758,13.1707224,
423220120,Geeste Nordmole Behelfsfeuer,53.5358949,8.5747348,
423793817,Blythswood Beacon,55.8908022,-4.401966,
424949835,,36.1049291,0.2035944,
425332246,,37.0395771,25.0870061,
425697978,,43.2797611,3.4438781,
426237190,,46.2080114,6.1559931,
426618808,Les Pâquis,46.2099985,6.1569289,
427097208,East Usk Lighthouse,51.5400136,-2.9669621,
427582786,Southwold Lighthouse,52.3272371,1.6814256,
427669269,Sleat Point Lighthouse,57.0183042,-6.0178577,
427959994,Far de Montjuïc,41.3609829,2.1659475,https://guia.barcelona.cat/detall/far-de-montjuic_133140417.html
427966551,lighthouse,-35.5089759,139.19097,
428700383,Cabot Head Lighthouse,45.2452876,-81.2920734,
429439904,Strukkamphuk,54.4093384,11.0956107,
429549997,Scurdie Ness,56.701781,-2.4373057,
429931109,,37.0333555,25.2588946,
430366105,Point Montara Light Station,37.5365031,-122.5193055,http://www.parks.ca.gov/?page_id=534
430542829,Faro Rosso,44.2087814,12.405284,
430542830,Faro Verde,44.208784,12.404481,
430928766,,39.3524921,22.9415401,
431015720,,39.9918851,23.6131821,
431061462,"Ruden, N-Leuchtfeuer",54.2058233,13.7697633,
431063508,,53.7116947,14.4661581,
431070821,Caputher Gemünde / Himmelreich,52.3517395,12.9933832,
431070823,Caputher Gemünde / Schwielowsee,52.3437735,12.9780009,
431076368,,54.4740995,9.8409756,
431334046,Faro de Nules,39.8264166,-0.110231,
431419325,,43.2804254,3.4427567,
432661565,,57.1458279,-4.6746969,
435685204,,57.6938966,-2.8236191,
436153120,,37.689129,26.9447876,
439573274,Hestan Island Lighthouse,54.8328986,-3.8081413,
439809666,Skomvær fyr,67.4109183,11.874925,
440384067,Djurstens fyr,60.3690216,18.4012072,
440611322,,54.0872363,-4.7593962,
441984183,Chicken Rock,54.0378794,-4.8375209,
442399290,Faro de Punta Sardina,28.1646426,-15.707783,
442668627,,53.4696698,12.3473364,
442669275,Gollwitz,54.0240359,11.4673812,
443470704,Faro San Francisco,0.6488101,-80.0866928,
443846893,,54.7657167,-4.0848667,
444014201,Oberfeuer Krautsand,53.7589219,9.374225,
444014202,Unterfeuer Krautsand,53.7545115,9.3863282,
444671024,,37.530367,130.8285251,
444671209,도동항로표시관리소(행남등대),37.48703,130.91943,
444671223,태하등대,37.518608,130.7971594,
444949732,Cozumel lighthouse,20.4954502,-86.9639986,
445330781,South Point Lighthouse,13.0470852,-59.5294812,
445414401,Needhams Point Lighthouse,13.0784814,-59.6109287,
446187022,Charles Point,-12.3893397,130.6309292,
448387859,Point Amour Lighthouse,51.4609389,-56.8579807,http://www.pointamourlighthouse.ca/home/
448744320,"Pagensand-Nord, Front Lt",53.715433,9.4890321,
448747992,Rhinplate Nord,53.80038,9.388269,
451977164,Farol da Berlenga,39.4153045,-9.5092544,
451988617,,39.3605573,-9.4077535,
453051110,Helsingin majakka,59.9489612,24.9263531,
455549721,Gammel-Pøl Fyr,54.8813788,10.0694009,
456011337,Mole 4,53.8874825,9.1256991,
457546778,,49.4575399,17.4515644,
458104724,ehem. Unterfeuer Schillig,53.6966016,8.0281021,
458237386,sa Puntassa,39.3124193,2.9935308,
458437275,Toledo Harbor Light,41.7619198,-83.3289633,
458715043,Sandy Cape Lighthouse,-24.7298978,153.2085341,
459031066,Berguddens fyr,63.7910671,20.8363914,
459834258,,55.9188865,12.6670716,
461709454,Faro da Barca,43.1130372,-9.2197672,
461813484,Phare d'Ailly,49.9160554,0.9584645,
461833100,Cap de ses Salines,39.2652188,3.0534115,
462138633,旧堺燈台,34.5834853,135.458956,
463252426,Faro di Punta Sottile,37.9350402,12.2722704,
463446232,Latarnia morska Czołpino,54.7183039,17.2412205,
465207572,Faro di Punta Marsala,37.9067484,12.3653778,
467676301,Phare de Gatteville,49.6964351,-1.2658767,
469173268,,9.7300186,118.733287,
469724587,Long Point Lighthouse,49.6878517,-54.7999756,
470734373,Cape Spear,47.5211987,-52.6224397,
470932530,,42.1565685,-8.8498324,
470994660,Duseudde,59.0788694,12.8831034,
471044640,Tarbat Ness Lighthouse,57.8650718,-3.7765882,
471453657,,51.4309507,7.2724482,
472122741,Tayport Low Light,56.4528318,-2.8923887,
472429280,Cap d'Artrutx,39.9225161,3.824251,
472429281,Punta Nati,40.0502143,3.8236346,
472429283,Far de Cavalleria,40.089017,4.0922786,
472429300,Far de l'illa de l'Aire,39.7994733,4.2931217,
472459326,Faro di Punta del Fenaio,42.3882771,10.8811615,
472481725,,40.8121914,14.3417636,
472968619,San Antón - Getaria,43.3104678,-2.2012997,
473368158,鴎島灯台,41.8681884,140.1139617,
473376221,Leuchtturm Oland,54.674656,8.6869478,
473772904,Shoreham Harbour,50.8308632,-0.2481893,
473890888,Blyth Old Light,55.1254531,-1.5000366,
475564875,Pharos Lighthouse,53.9264838,-3.007515,
475650265,Lorain Harbor Light,41.4810809,-82.1952413,
475651206,Beaver Creek Water Tower Light,41.4213532,-82.3583634,
475651474,Huron Harbor Light,41.4046227,-82.5438374,
475652064,Sandusky Harbor Breakwater Light,41.4992789,-82.6745653,
475902605,Michigan Island Lighthouse,46.8713719,-90.4972887,
475913964,Devil's Island Lighthouse,47.0794718,-90.7283118,
475916954,Outer Island Lighthouse,47.0766461,-90.4167705,
475922855,Sand Island Lighthouse,47.0030973,-90.937509,
476021567,När fyr,57.218275,18.6810476,
476662470,琉球嶼燈塔,22.3288382,120.3665068,
477082189,Sheboygan Breakwater Lighthouse,43.7494734,-87.6926993,
477227578,Cape Borda Lighthouse,-35.752788,136.5933555,
477284143,Faro de Tazones,43.5478791,-5.3990501,
477790821,Menominee North Pier Lighthouse,45.0972715,-87.5859801,
478353679,Manistique East Breakwater Lighthouse,45.9448079,-86.2475833,
479200921,,40.1571862,24.2829664,
479492430,Santa Cruz Lighthouse,36.9514859,-122.026736,
479600509,Phare de Carleton,48.0869476,-66.1248888,
479846826,Corn ar'Che,48.5865626,-4.7321268,
482689414,Dänholm,54.3079616,13.1132353,
482851469,Hüseyin Burnu Feneri,36.9648658,27.263977,
483347164,Gig Harbor Lighthouse,47.3265778,-122.5747398,
484186505,Phare de Cap Blanc,47.1050008,-56.3988946,
484604387,,43.8622193,10.235295,
485571796,,16.9880315,73.2725115,
486519535,Bock rear / Zarrenzin front,54.4478848,13.0243284,
488316701,Naven fyr,58.7013067,13.1090674,
488879987,Phare de Pointe Plate,46.8223259,-56.4024607,
489926480,Phare de la Pointe Leconte,46.7817138,-56.1545404,
489987464,Leuchtturm Steindeich,53.7336594,9.4579395,
490515051,,46.7813652,-56.1661138,
491406196,Lobster Cove Head Lighthouse,49.6029013,-57.9556771,https://parks.canada.ca/pn-np/nl/grosmorne/activ/decouverte-tours/lch
491516361,South Bass Island Light,41.6289001,-82.8413062,
491803135,Middle Sister Island Light,41.8504099,-82.9995113,
492004161,Punta Gorda Light House,40.2493943,-124.3502142,
492028563,Farol de Belém,-1.4652921,-48.5054747,
492153107,Ledskär,58.7018472,17.2218705,
492456158,Ballast Island Light,41.6785583,-82.7840528,
493679185,Cape North Lighthouse,45.4020986,-75.6238081,
493872225,Phare de Fécamp,49.7656265,0.363292,
493872264,Feu de la jetée Sud,49.7648019,0.363645,
493888568,Livingstone Channel Upper Entrance Light,42.1356902,-83.1223701,
493903457,Rocher Petit Saint-Pierre,46.7985992,-56.1483613,
494322318,,43.8499537,-78.9270975,
494544967,Phare de Galantry,46.7651261,-56.1539208,
494597591,,54.2260642,-4.6944869,
495244464,Saint Martin Island Lighthouse,45.5035555,-86.7580348,
495388540,Poverty Island Lighthouse,45.5224732,-86.6666186,
495962885,浪花礁灯塔,16.0261389,112.4453611,
496228035,Phare du Grand Rouveau,43.080257,5.7675577,
496277639,Obrestad fyr,58.6580139,5.5542719,
497590813,,37.6867966,26.9482516,
497593844,,37.6903368,26.9582993,
497594021,,37.6909897,26.958863,
497739101,Southwest Ledge Light,41.2344502,-72.9121373,
498342239,,49.7737356,31.4377407,
498847344,Chalmers Lighthouse,56.2196207,-2.6969786,
498851010,,56.2104723,-2.729082,
500005640,Phare de Port Manec'h,47.7997683,-3.73907,
500005644,Le Cochon,47.8578669,-3.9257375,
500419569,,61.3775408,30.8711627,
500419571,,61.3708808,30.881185,
500611296,Oxcars Lighthouse,56.0225332,-3.2802681,
500907280,,55.3673469,13.182925,
500968008,,49.147577,-55.3345848,
501786700,Farol de Mãe Luiza,-5.795181,-35.1853145,
501848615,Vejsnæs Nakke,54.8171522,10.4231123,
506072159,Oksøy fyr,58.0722845,8.0528155,
506184322,,61.3986437,30.927818,
507683818,Deveboynu Deniz Feneri,36.686826,27.3635798,
512558022,Stora Gåsholmen,59.4724307,17.4552115,
512579124,,38.6383487,-28.7206675,
513756495,Lastberget,59.4721468,17.4303905,
513766889,Ytterholmen,59.4349305,17.3979554,
513962861,Sandhammarens fyr,55.3867084,14.1928894,www.sandhammarensfyrplats.se
513981440,,55.8920391,12.7112029,
513984491,Kullens västra fyr,56.3024581,12.4467269,
513996991,,55.4268683,13.8296219,
515929087,,42.3589461,10.0642385,
516085712,,42.5772643,10.8818647,
516365534,Fanale Rosso Entrata Porto Barletta,41.3336247,16.2948094,
516365790,Faro di Scilla,38.2564178,15.714483,
516366144,Faro settentrionale della Meloria,43.5914598,10.2112134,
516366847,,38.0433333,12.4385667,
517387710,,35.8565129,12.8604041,
519911979,Fageröflisan,59.5137995,17.4818358,
520566860,Faro Sant'Anna,37.5769093,15.1760829,
521604098,Phare,16.1706384,-61.1092176,
523936816,Matxitxako,43.4542435,-2.7528667,
527372298,,44.0863076,39.0660575,
527372300,,44.0869906,39.0689322,
528227868,מגדלור שפך הירקון,32.1035364,34.7770671,
528711123,San Fernando Point Lighthouse,16.614861,120.2808382,
528952355,Killarney Lightstation,45.9681276,-81.4888697,
529166253,,44.125019,-76.3865183,
529166256,,44.203861,-76.3096098,
529166258,,44.2323235,-76.3978142,
529166259,,44.229405,-76.477852,
529166260,,44.2388209,-76.1840724,
529166262,,44.2461264,-76.3069304,
529166263,,44.2073709,-76.2383182,
529166273,,44.135422,-76.354317,
529166277,,44.2244677,-76.4543608,
529166282,,44.2336304,-76.4504335,
529166284,,44.1942543,-76.328453,
529166287,,44.2043856,-76.3104129,
529166289,,44.2385129,-76.1845622,
529166291,,44.2299268,-76.4773274,
529270178,,44.2574426,-76.381667,
529270233,,44.2770798,-76.3271185,
529270239,,44.2963255,-76.1911042,
529270704,,44.2991478,-76.2858648,
529270718,,44.3024501,-76.2755182,
529270736,,44.3041709,-76.2492116,
529270808,,44.3025576,-76.1905264,
529270809,,44.3112274,-76.1833566,
529271173,,44.2991693,-76.1302355,
529271610,,44.3244687,-76.080659,
529271616,,44.3112504,-76.096228,
529271672,,44.3499422,-76.0039695,
529453794,The Heugh Lighthouse,54.6965071,-1.1761594,
529600880,Detroit River Light,42.0008189,-83.1412453,
529686336,,44.9903956,14.8997115,
529686387,,-3.7052805,-38.460539,
530819568,Sand Island Lighthouse,30.1877251,-88.0505924,
530944291,,55.2519047,-5.1084378,
530980938,,55.2750595,-5.5830757,
530980963,,55.4280692,-5.5404629,
530980965,,55.4251585,-5.1184424,
531724871,Wolf Rock Lighthouse,49.9455928,-5.80803,
533899305,Point Hicks,-37.8019218,149.2755534,
533970896,,42.2699667,-83.1118416,
535700544,Phare du Millier,48.0987883,-4.4656322,
537770587,Windmill Point Light,42.3576158,-82.9298745,
538091910,Port Hueneme Light,34.1451777,-119.210018,http://www.huenemelight.org/
538588117,Santa Barbara Light,34.3963106,-119.7226045,
538659370,Point Conception Light,34.4487007,-120.470796,
538969140,Leuchtturm Robbenplate,53.6766667,8.3961833,
538969141,Leuchtturm Meyers Leegde neu,53.7301926,8.4075166,
538969142,Leuchtturm Meyers Leegde alt,53.7229819,8.4083188,
538969144,Leuchtturm Alte Weser,53.863283,8.12758,
538969145,Leuchtturm Tegeler Plate,53.7977592,8.1910829,
538977739,,54.6474079,-1.137441,
539380857,Far del Cap de la Nau,38.7327629,0.2302645,
540032961,Seru Bentana Lighthouse,12.3049287,-68.3760885,
540034414,Willemstoren Lighthouse,12.0283185,-68.2373018,
540121391,California Lighthouse,12.6137665,-70.0513486,
540121392,Sero Colorado Lighthouse,12.4182872,-69.8691531,
545038595,,56.8821577,12.4658972,
548143136,West Usk Lighthouse,51.5406228,-2.994671,
552361746,Point Lynas Lighthouse,53.416286,-4.2892478,
553306638,,48.0052273,-4.551099,
553326869,,55.9544858,15.7013194,
553326916,,55.9543672,15.7054122,
553896559,,35.348469,25.1527124,
555139139,,43.6264494,-79.4042908,
555139144,,43.6326855,-79.3889777,
555139155,,43.6290919,-79.3498478,
555139156,Toronto Harbour Light,43.6135422,-79.3434159,
555139158,,43.6348434,-79.3469944,
555139166,,43.6522295,-79.3301302,
555139169,,43.6506963,-79.3336936,
555139172,,43.6417044,-79.3213725,
555139179,,43.6381682,-79.3532747,
558564109,Faro Punta San Emeterio,43.399448,-4.5345554,
558686562,Осиновецкий маяк,60.1187512,31.0806752,
558743402,Burlington Front Light,43.3010016,-79.7904957,
558746376,,43.2802821,-79.8038282,
558746377,,43.2791483,-79.7987449,
559184018,San Nicolas Island East End Light,33.2290771,-119.4368532,
559184020,Santa Barbara Island Light,33.4874292,-119.0303376,
559738240,Boat Bluff Lighthouse,52.6429226,-128.523751,
559822311,,46.9898045,6.9338401,
560548697,Faro de Cayo Jutias,22.7154325,-84.0225266,
560634775,Ship Rock Light,33.4631983,-118.4916767,
563791742,Port Melbourne Rear Light,-37.8371737,144.929498,
564443271,,33.5040961,133.5581136,
564862867,Farol Da Barra,-13.0103544,-38.53287,
566859512,Los Angeles Light,33.7085365,-118.2515988,
566859523,Long Beach Light,33.7232263,-118.1868787,
568050923,Baliça de la Punta de sa Creueta,39.1542348,2.9282842,
568050929,Baliça del Cap de Llebeig,39.1606366,2.917222,
568377069,,28.5562451,-16.3452071,
569071082,,52.5057623,13.8396402,
571415472,Wadjemup Lighthouse,-32.0072709,115.5041505,
571424207,,53.4651858,8.476093,
571746634,Mersey Bluff Lighthouse,-41.1587289,146.3555056,
575752550,Farol de Itapuã,-12.9571076,-38.3537153,
576274329,,54.3441957,40.682762,
582441020,Cleveland Point Lighthouse,-27.5102129,153.2890665,
582444779,Green Bay harbor Entrance Lighthouse,44.6530668,-87.9010668,
582446301,Algoma Lighthouse,44.6067818,-87.4295304,
582453473,Rock Harbor Lighthouse,48.089754,-88.5793477,
582699340,Boyer Bluff Lighthouse,45.4205166,-86.9366001,
582699343,Plum Island Range Rear Light,45.3076522,-86.9581275,
582704597,Sturgeon Bay Ship Canal Lighthouse,44.7950035,-87.3133105,
582707554,Rawley Point Lighthouse,44.2106362,-87.5089115,
582707558,Two Rivers Lighthouse,44.1531001,-87.5624102,
582710577,Kewaunee Pierhead Lighthouse,44.4572908,-87.493096,
582711628,Green Island Lighthouse,45.0564222,-87.4928913,
582712062,Peshtigo Reef Lighthouse,44.9566335,-87.5791168,
582715733,Calumet Harbor Lighthouse,43.9151666,-88.3326168,
582715740,Fisherman's Road Lighthouse,43.8735333,-88.3626168,
582716092,Fond du Lac Lighthouse,43.7977328,-88.4373973,
582723561,Asylum Point Lighthouse,44.0624189,-88.5148005,
582730404,Raspberry Island Lighthouse,46.9705319,-90.8049695,
582731665,Chequamegon Point Lighthouse,46.7285906,-90.808916,
582732864,LaPointe Lighthouse,46.7287363,-90.7850632,
582733847,Gull Island Lighthouse,46.9068568,-90.4433261,
582740373,Passage Island Lighthouse,48.2235104,-88.3658712,https://www.nps.gov/articles/000/passage-island-lighthouse.htm
582742870,Minneapolis Shoal Lighthouse,45.5815001,-86.9985167,
582752667,Grassy Island Range Lighthouse,44.5396654,-88.0012735,
582770722,Port Washington Breakwater Lighthouse,43.3852761,-87.8596493,
582772978,Kevich Lighthouse,43.323486,-87.8884637,
582775150,Racine Breakwater Lighthouse,42.7346038,-87.7720289,
582775812,Kenosha North Pierhead Light,42.5888401,-87.8086272,
582778544,Peninsula Point Lighthouse,45.6680646,-86.9669732,
582778691,Round Island Lighthouse,45.8372229,-84.6168933,
582779989,Old Mackinac Point Lighthouse,45.7875141,-84.7294694,https://www.mackinacparks.com/parks-and-attractions/old-mackinac-point-lighthouse/
582779993,McGulpin Point Lighthouse,45.7871401,-84.7730634,
582780860,St. Helena Island Lighthouse,45.8550875,-84.8636364,
582783104,Seul Choix Point Lighthouse,45.9213443,-85.9121859,
582784558,Beaver Head Lighthouse,45.5756452,-85.5735652,
582784798,Squaw Island Lighthouse,45.840048,-85.5871802,
582785101,South Fox Island Lighthouse,45.3780771,-85.8384182,
582786291,Long Tail Point Lighthouse,44.5960981,-87.9835357,
582790726,Skillagalee Island (Ile Aux Galets) Lighthouse,45.6763217,-85.1723319,
582790727,Grays Reef Lighthouse,45.7658166,-85.1534834,
582790728,Waugoshance Lighthouse,45.7873296,-85.0916861,
582790729,White Shoal Lighthouse,45.8416833,-85.1356667,
582790730,Lansing Shoal Lighthouse,45.9037333,-85.5617166,
583855645,Farol do Carapacho,39.0136068,-27.9553293,
585339006,Tankarin majakka,63.9500759,22.8465511,
589004457,Point San Luis Lighthouse,35.1603509,-120.7608209,http://www.sanluislighthouse.org/
589076741,,32.5406407,-9.2839934,
592460854,Capo Testa,41.2437272,9.1442188,
597551261,Griffiths Island Lighthouse,-38.3909639,142.2545919,
598921455,Farol do Arnel,37.8241106,-25.1356152,
599051999,Faro de Anaga,28.581323,-16.140021,
599328653,,42.2579493,3.1503063,
599514947,Hoge vuurtoren van IJmuiden,52.4608497,4.5827297,
599970425,Cape Nelson Lighthouse,-38.430936,141.5428882,
600148644,Faro Torre del Mar,36.7350193,-4.0960793,
601409824,,36.7477388,-4.0726458,
602164178,,53.4683975,8.4792197,
602164179,Nordenham Oberfeuer,53.4810489,8.4859798,
602214530,Phare de Kergadec,48.0159203,-4.5462953,
602218712,Leeweideck,47.8451124,16.7010927,
602286510,,36.7466081,-4.0708029,
602286511,,36.7476616,-4.0702235,
602489822,Coz Fornic,48.0148443,-4.5384885,
602489831,Le Vieux Môle,48.0166027,-4.5357031,
603121496,,45.4415334,10.6930402,
603327299,Pentland Skerries Lighthouse,58.6901483,-2.9247182,
605495810,,24.3325051,124.132332,
605495813,,24.3350894,124.136372,
605495816,,24.3355907,124.1403162,
605513373,,24.4184466,123.8064814,
606269038,Faro del Morro,19.9675135,-75.8684931,
607656423,Refugio Lighthouse,10.4692551,123.4482321,
608487445,Faro Claromecó,-38.8579732,-60.0517948,
609796908,Rönnskärin majakka,59.9354943,24.3913943,
609909272,Kalbådagrundin majakka,59.9856124,25.5987387,
610462175,Faro de Ajo,43.5115521,-3.5952949,
610464527,Stroma Lighthouse,58.6958841,-3.1167909,
611080701,,59.0189259,-2.9009588,
611644313,Start Point Lighthouse,59.2774288,-2.3758892,
612583346,Hoy High Lighthouse,58.9356656,-3.2732917,
614826570,,18.1749645,-72.5464404,
614981344,,18.4504254,-73.1060334,
614987101,Farol Ponta da Ilha,38.412514,-28.0304719,
615049737,,18.5535942,-72.4098869,
615075810,Farol da Ponta dos Rosais,38.753644,-28.31156,
615076753,Farol da Ponta do Topo,38.5491211,-27.7548252,
615870864,,43.8862076,-78.6639809,
616012286,,19.0457095,-72.8213223,
616022422,,-37.8722222,144.9735676,
616028552,,18.8031987,-72.6491822,
617255272,Apo Island Lighthouse,9.0826587,123.2704039,
618527689,Faro Mocha Weste,-38.3707095,-73.9492108,
620897376,,50.1049803,1.4537477,
621201029,,41.8425233,-90.1837709,
621528664,Point Loma Light,32.6650828,-117.242681,https://www.nps.gov/places/new-point-loma-lighthouse.htm
622526747,,-4.8728577,39.6782692,
623430641,,50.1942502,1.5121358,
624223698,Phare rouge de la Digue du Nord,50.1861637,1.6436299,
628322193,Castillo Grande,10.3910175,-75.545094,
631722015,Feu de Marée,50.2147058,1.6229955,
631872796,Llebeig,39.5741723,2.3043072,
631872798,Tramuntana,39.5981285,2.3381064,
633018416,Holburn Head,58.6148754,-3.5398363,
633184620,,20.8595388,-90.4013498,
634568242,Farallon Island,37.6991789,-123.0017066,
634741396,,57.9341808,-4.0058222,
634830137,Bützflethersand Unterfeuer,53.6315295,9.5244337,
635484478,Roter Sand,53.8531662,8.0821686,https://roter-sand.de/
635759878,Tayport Pile Light,56.4529461,-2.8723519,
636877171,Foul Point,8.5253465,81.3187225,
644433170,Faro,22.6757757,-82.2900682,
647970764,Queenscliff Black Lighthouse,-38.2715967,144.6618522,
648215296,,36.8336,-2.4840833,
648609954,Tour du Commerce,47.2574239,-2.2492427,
648609964,Kerlédé,47.2602594,-2.2463436,
648692336,Phare du Fort de Brescou,43.2629507,3.5017052,
650052676,Faro de Lluces,43.5341321,-5.300608,
654468601,,43.5772157,39.713333,
656299291,Hellisøy fyr,60.752167,4.7104,
659768997,Faro de Rasca,28.001094,-16.6943816,
659850571,Far de Sa Creu,39.7966334,2.6892109,
659996237,Faro du cap Malabata,35.8167693,-5.749678,
662397391,Faro di Sant'Andrea,40.0472022,17.9455346,
663046012,,54.4928299,-0.6128787,
663387374,Kallan,63.7514073,22.5227885,
663423258,Farol das Conchas,-25.5390879,-48.2908477,
664318913,Point Pinos Lighthouse,36.6333897,-121.933737,
665974920,Маяк,56.76028,54.068401,
666972287,,39.5429323,2.3789721,
669990455,Phare de Leucate,42.9105416,3.0559759,
670006878,Phare de Chanchardon,46.1619259,-1.4735359,
670635893,,-21.008665,55.2690823,
671679367,Lilla Varholmen fyr övre,57.704978,11.703401,
672105781,,52.402346,12.486135,
672768845,Nab Tower,50.6679151,-0.9524921,
674525262,Replika av Lindesnes Fyr,58.0792362,7.3074449,
675951981,,60.0953468,24.7751607,
675951995,,60.0957928,24.7657019,
675951997,,60.0733333,24.7233,
675952057,Halliluoto,60.0361833,24.8904833,
675952074,Trutkobben,60.1030333,24.91815,
675952092,,60.0993,24.91645,
675952154,,60.0917201,25.1303983,
675952160,,60.0633667,25.13725,
675952388,,60.1363,24.9158,
675952414,,60.1363167,24.9139166,
675952427,,60.1238672,24.9102413,
675952474,,60.1376667,24.9224166,
675952484,Tiirakari,60.1283313,24.9269043,
675952499,,60.1368666,24.9176,
675952620,Reimarisaari,60.1311854,24.9939895,
675952658,Länsi Mustasaari,60.1462814,24.97406,
675952776,,60.13935,24.9935166,
675952831,,60.1215782,25.0090096,
675952885,,60.1555503,25.0248499,
676344208,Faro Punta San Cataldo,41.1391069,16.8450504,
676779373,,26.1409792,127.3422483,
677134888,,48.2618038,7.7195043,
677167551,Faro di Capo Zafferano,38.1121001,13.5375034,
677528670,Saareotsa sihi alumine tulepaak,58.2279833,24.1353,
677528673,Kajakarahu sihi alumine tulepaak,58.9531333,23.5137833,
677528683,Kihnu sadamamuuli tulepaak,58.1421646,24.0223089,
677528685,Madise sihi alumine tulepaak,59.2941667,24.1159,
677528688,Triigi sihi alumine tulepaak,58.5919333,22.7194833,
677528690,Manilaiu tuletorn,58.2033542,24.1002628,
677528693,Pirita sihi alumine tulepaak,59.4688333,24.8206833,https://nma.vta.ee/aton/2817
677528706,Sviby sihi ülemine tulepaak,58.9746333,23.3066,
677528715,Pirita lõunamuuli tulepaak,59.4700633,24.8175385,https://nma.vta.ee/aton/2670
677528728,Pärnu idamuuli tulepaak,58.3663014,24.4642084,
677528733,Vormsi põhja-sihi ülemine tulepaak,59.0206833,23.1286167,
677528741,Rohuneeme sihi alumine tulepaak,59.5590833,24.7930167,
677528745,Moldova tulepaak,59.4320333,27.05515,
677528761,Rohuküla sadama lõunamuuli tulepaak,58.9077167,23.4187333,
677528764,Viimsi sihi ülemine tuletorn,59.5167667,24.8398167,
677528804,Piirivalvesadama lainemurdja SE otsa tulepaak,59.4550667,24.65955,
677528813,Kelnase sihi ülemine tulepaak,59.63655,25.0116667,
677528816,Karala tulepaak,58.2713167,21.8967667,
677528826,Sõru sihi alumine tuletorn,58.7010667,22.4922667,
677528838,Abruka tuletorn,58.1490667,22.5243167,
677528843,Leppneeme sadamakai tulepaak,59.55125,24.86815,
677528855,Paldiski Põhjasadama läänemuuli tulepaak,59.3497833,24.0475667,
677528856,Uhtju tulepaak,59.677,26.5112,
677528860,Kuivastu sihi alumine tulepaak,58.57365,23.3898667,
677528862,Paldiski Lõunasadama sihi alumine tulepaak,59.3313333,24.0938167,
677528864,Muuga sadama 16 kai tulepaak,59.4930952,24.9644692,
677528866,Kuressaare sihi ülemine tulepaak,58.24665,22.4705833,
677528870,Piirivalvesadama lõunamuuli NW otsa tulepaak,59.4546333,24.6603667,
677528871,Aegna tulepaak,59.6006167,24.72975,
677528876,Tallinna sihi alumine tuletorn,59.4373699,24.7985476,
677528884,Virtsu sadamakai tulepaak,58.5762,23.5082333,
677528893,Hobulaiu põhja-tulepaak,58.9518,23.38695,
677528896,Prangli kagu tulepaak,59.6155,25.0373833,
677528911,Saareotsa sihi ülemine tulepaak,58.2284167,24.1376167,
677528919,Kajakarahu sihi ülemine tulepaak,58.9527333,23.5241,
677528923,Aksi tulepaak,59.5955843,25.0982842,
677528930,Praaga sihi ülemine tulepaak,58.4382333,27.2351333,
677528937,Pärnu sihi ülemine tulepaak,58.3856167,24.4714,
677528944,Väike-Pakri tulepaak,59.3573833,23.97875,
677528960,Triigi sihi ülemine tulepaak,58.5909667,22.7174167,
677528964,Põõsaspea tulepaak,59.2281765,23.5109325,
677528970,Veere sadamakai tulepaak,58.4612,22.052,
677528972,Sviby kai tulepaak,58.9700667,23.3125167,
677528976,Sõru sihi ülemine tuletorn,58.7039287,22.4858813,
677528978,Silla sihi alumine tulepaak,58.3893333,24.4866167,
677528988,Orissaare sadamakai tulepaak,58.5624037,23.0936969,
677528990,Holmi sihi ülemine tulepaak,58.9607833,23.51775,
677529001,Vahemadala tuletorn,59.5102167,24.6662167,
677529003,Leppneeme sihi alumine tulepaak,59.5513333,24.8675833,
677529013,Kallavere sihi alumine tulepaak,59.5026233,25.0276347,
677529020,Paljassaare sihi alumine tulepaak,59.4574167,24.7028333,
677529022,Paldiski Põhjasadama kai nr 1 tulepaak,59.3482338,24.0509033,
677529023,Kunda sadamakai tulepaak,59.5278833,26.5472167,
677529025,Rannapungerja tuletorn,58.9793744,27.1757028,https://nma.vta.ee/aton/2113
677529028,Kuivastu sihi ülemine tulepaak,58.5735333,23.38435,
677529031,Paldiski Lõunasadama sihi ülemine tulepaak,59.331937,24.0982974,
677529032,Kunda sihi ülemine tulepaak,59.5100333,26.5618,
677529034,Sandla-Allirahu tulepaak,58.1620833,22.7867167,
677529037,Kesse sihi ülemine tulepaak,58.629,23.42515,
677529039,Bekkeri sadamamuuli tulepaak,59.4527333,24.6629167,
677529040,Aegna sadamakai tulepaak,59.5711333,24.7579667,
677529044,Lõunaranna sadamakai tulepaak,58.5409667,23.3193833,
677529046,Meeruse sihi ülemine tulepaak,59.4505,24.6780333,
677529047,Muuga Söeterminali muuli tulepaak,59.5079333,24.9959833,
677529052,Liu tulepaak,58.2772833,24.2644,
677529054,Holmi sihi alumine tulepaak,58.9597667,23.5111667,
677529055,Muuga sihi alumine tulepaak,59.4941683,24.9427555,
677529057,Laaksaare sihi alumine tulepaak,58.3387167,27.41795,
677529060,Seedri sihi alumine tulepaak,58.3789333,24.4805667,
677529062,Suur-Pakri tulepaak,59.3491,23.8634333,
677529067,Pöörilaiu tuletorn,58.4613333,23.6296,
677529069,Dirhami sadamakai tulepaak,59.2113333,23.501,
677529073,Saaremaa sadama kai tulepaak,58.5370333,22.2373333,
677529081,Silla sihi ülemine tulepaak,58.39115,24.4883333,
677529085,Viimsi sihi alumine tulepaak,59.5154,24.8156333,https://nma.vta.ee/aton/2796
677529096,Sillamäe sadama läänemuuli tulepaak,59.4236667,27.7261667,
677529097,Mehikoorma tuletorn,58.2334543,27.4766151,
677529105,Hülkari tulepaak,59.5409333,24.5633833,https://nma.vta.ee/aton/aton_2740.html
677529113,Vene-Balti sadama põhjakai tulepaak,59.4615333,24.6477,
677529118,Kallavere sihi ülemine tulepaak,59.49061,25.023896,
677529119,Vahase tulepaak,58.1341667,22.4659167,
677529124,Paljassaare sihi ülemine tulepaak,59.4567167,24.6992,
677529127,Kunda sadama paadikai tulepaak,59.52355,26.5437167,
677529130,Ninaküla tuletorn,58.607358,27.2093449,
677529134,Kuivastu sadamakai tulepaak,58.5735167,23.39635,
677529136,Paldiski Lõunasadama naftakai tulepaak,59.3313697,24.0794058,
677529137,Vainupea tulepaak,59.5858167,26.2649667,https://nma.vta.ee/aton/2531
677529144,Meeruse sadamakai tulepaak,59.4500167,24.6696667,
677529147,Kuressaare sadama põhjamuuli tulepaak,58.2441,22.4705167,
677529151,Kopli sihi alumine tulepaak,59.4353333,24.67935,
677529152,Muuga söeterminali kanali tulepaak,59.5034833,24.9994333,
677529157,Pärnu sihi alumine tulepaak,58.3788667,24.4656833,
677529160,Paslepa sihi alumine tuletorn,59.0192,23.4335333,
677529161,Muuga sihi ülemine tulepaak,59.490622,24.9373348,
677529163,Laaksaare sihi ülemine tulepaak,58.3384291,27.4157109,
677529166,Seedri sihi ülemine tulepaak,58.3815833,24.4846833,
677529168,Krassi tulepaak,59.3445167,23.7754167,
677529174,Kihnu sihi alumine tulepaak,58.1425833,24.0151667,
677529176,Dirhami sihi alumine tulepaak,59.2091333,23.5038333,
677529180,Rannaküla tulepaak,58.6256333,22.87435,
677529183,Munalaiu sihi alumine tulepaak,58.2292167,24.1177833,
677529190,Häädemeeste tulepaak,58.07365,24.4862333,
677529197,Norrby sihi alumine tuletorn,59.0200333,23.3511167,
677529210,Rohuküla sihi alumine tulepaak,58.90775,23.4257667,
677529213,Naissaare sadamamuuli tulepaak,59.5562667,24.55415,
677529221,Vene-Balti sadama lõunabasseini tulepaak,59.45665,24.6564167,
677529225,Loksa sadama lõunakai tulepaak,59.58255,25.7006333,
677529226,Kirjurahu tulepaak,58.0994167,22.5567,
677529235,Kunda sihi alumine tulepaak,59.5179,26.55665,
677529237,Praaga sihi alumine tulepaak,58.4386833,27.23875,
677529240,Kesse sihi alumine tulepaak,58.6324333,23.4149667,
677529243,Vergi tuletorn,59.6015024,26.1008234,
677529247,Abruka sadama sihi alumine tulepaak,58.1625667,22.5275833,
677529249,Raugi sihi ülemine tulepaak,58.6469333,23.3110833,
677529251,Meeruse sihi alumine tulepaak,59.4501833,24.6753833,
677529253,Muuga sadama viljakai tulepaak,59.499,24.96315,
677529256,Kuressaare sadama lõunamuuli tulepaak,58.2437167,22.47085,
677529260,Kopli sihi ülemine tulepaak,59.4329667,24.6843167,
677529261,Rohuneeme sihi ülemine tulepaak,59.5584613,24.7941322,
677529276,Virtsu sihi alumine tulepaak,58.5763833,23.5230333,
677529282,Paslepa sihi ülemine tuletorn,59.0158,23.4394667,
677529283,Karbimadala tuletorn,59.54995,24.9710167,
677529285,Narva-Jõesuu tuletorn,59.4680758,28.0403429,
677529287,Pärnu läänemuuli tulepaak,58.3686167,24.4616333,
677529295,Kihnu sihi ülemine tulepaak,58.1426333,24.0131833,
677529297,Dirhami sihi ülemine tulepaak,59.2072167,23.5044667,
677529301,Triigi jahisadama tulepaak,58.5914,22.7186667,
677529303,Munalaiu sihi ülemine tulepaak,58.2299333,24.1170167,
677529310,Panga tulepaak,58.5695167,22.2876833,
677529312,Sviby sihi alumine tulepaak,58.97045,23.31255,
677529315,Sillamäe sadama tankerikai tulepaak,59.4261855,27.7395759,
677529319,Kõinastu tulepaak,58.6462,23.0196667,
677529323,Rohuküla sadamakai tulepaak,58.9047167,23.4235667,
677529344,Valaste tulepaak,59.4451833,27.3658,
677529345,Rukkirahu tuletorn,58.9042115,23.3501265,
677529349,Rohuküla sadama põhjamuuli tulepaak,58.9087833,23.4162333,
677529368,Piirivalvesadama lainemurdja NW otsa tulepaak,59.45575,24.6581667,
677529375,Kelnase sihi alumine tulepaak,59.6372,25.01285,
677529376,Saaremaa sadama kai tulepaak,58.53555,22.2392167,
677529392,Leppneeme sihi ülemine tulepaak,59.5508,24.8664667,
677529396,Kõiguste-Allirahu tulepaak,58.2997333,22.9694,
677529404,Paldiski Põhjasadama lainemurdja tulepaak,59.3539833,24.0369333,
677529406,Loksa sadama loodekai tulepaak,59.5835,25.6989333,
677529410,Abruka sadama sihi ülemine tulepaak,58.1623,22.5260333,
677529414,Seanina tulepaak,58.6832333,23.1921333,
677529419,Paldiski Lõunasadama tulepaak,59.3375,24.0731167,
677529421,Muuga sadama läänekai tulepaak,59.4989211,24.9487177,
677529424,Kuressaare sihi alumine tulepaak,58.2441333,22.4704833,
677529438,Tallinnamadala tuletorn,59.71205,24.7315,
677529442,Virtsu sihi ülemine tulepaak,58.5764833,23.52805,
677529446,Uppholmi tulepaak,58.974333,23.3907844,
677529447,Prangli loode tuletorn,59.64565,24.9688833,
679181967,Faro Punta Robaleira,42.2505538,-8.8727327,
679182350,Faro de Cabo Home,42.2532424,-8.8732669,
682356970,,36.6197916,27.1728521,
682358065,,36.6193295,27.1718286,
682361803,,37.4446736,26.9615137,
682362828,,37.1499658,26.8633799,
682367216,,37.0915719,26.8862455,
682369145,,36.8983283,27.2884245,
683310366,Faro di Capo Gallo,38.2235025,13.3166509,
686575215,Oude vuurtoren,52.7124135,5.9292103,
687193052,,44.2167919,-76.5149332,
687193053,,44.2082384,-76.5496301,
687193054,,44.0637682,-76.9693393,
687193058,,44.2060977,-76.6853297,
687193059,,44.1103151,-76.8433142,
687193060,,44.1515771,-76.5558927,
687193061,,44.2040322,-76.7085605,
687193062,,44.0664852,-76.54982,
687193063,,44.2076771,-76.6377608,
687193064,,44.1280665,-76.8122852,
687193066,,44.1721919,-76.7029311,
687193067,,44.2072886,-76.6297044,
687193068,,44.2167337,-76.5373321,
687193069,,44.1927311,-76.7408006,
687529394,Faro di Termoli,42.0056378,14.9968792,
689391586,,54.4928265,-0.6118254,
691223898,,39.3497077,-9.3741657,
691223902,,39.3480079,-9.3754957,
693025861,Cap Caxine,36.8127775,2.9539253,
693456483,Phare Escampabarriu (XIXe),43.0282411,6.0968144,
693566791,Súgandisey,65.0803033,-22.7233216,
693645074,,64.9240838,-23.2493048,
694020056,Faro Punta Curaumilla,-33.1000476,-71.7394562,
694638278,,54.857194,10.5217274,
695848163,,26.2242558,127.6515881,
695848176,,26.2532894,127.6577536,
696670030,,43.0165075,6.1440457,
697235891,Port Germein,-33.0235868,137.9985571,
697437659,Ballycurrin Lighthouse,53.4854302,-9.2132125,
697883608,Far d'Alcanada,39.8354286,3.1712065,
698084610,Point Somes,-43.8386073,-176.8758215,
698084611,Point Weeding,-43.9432383,-176.571703,
698084612,Motutapu Light,-44.2270199,-176.2215936,
699660526,,-21.6440825,115.1173297,
699810518,Rubha Reidh,57.8587603,-5.8116223,
702515919,,51.6315647,-4.6842607,
703128124,Воронцовський маяк,46.4965348,30.7600343,
703546962,Minni Minni,-7.326784,72.4745948,
703547991,Faro Punta Palmar,-34.0671132,-53.5511503,
704320348,,55.5510793,-4.6836748,
705194180,Phare Blanc,35.676386,10.8944317,
705194185,Phare Vert,35.6757153,10.8940002,
705194187,Phare Rouge,35.6751397,10.8941527,
705833055,North Head Lighthouse,-33.0506759,17.910822,
707125777,Punta,45.5302166,13.563208,
713937970,,7.4683546,99.0981033,
714263765,Faro da Estaca de Bares,43.7862438,-7.6842979,
718504867,faro dello Scoglietto,42.828567,10.3311167,
718905820,,62.0801667,-7.461,
719113403,Fugloyar viti,62.3417286,-6.261373,
719113406,Kalsoyar viti,62.3702208,-6.8115903,
721786403,Salt Creek Beach Park,33.4785967,-117.7187979,
722489114,,41.3306195,16.291021,
722489115,,41.330529,16.2907119,
724912923,,61.9324613,-6.8684807,
724912960,,61.9817268,-6.8598253,
724912991,,62.0286911,-6.7492799,
724912999,Porkeris Viti,61.486866,-6.7049331,
725413326,Strømtangen fyr,59.151188,10.8294437,
726811607,Borgholm fyr,56.8761236,16.6332164,
727117351,Round Hill Lighthouse (Burnie),-41.06508,145.9619979,
728173981,Передний створный маяк Морского канала,60.0345784,29.9022477,http://pofortam.ru/majak-morskogo-kanala-spb/
728173982,Задний маяк створа кронштадтских маяков,59.9721022,29.7892418,
728173983,Передний створный маяк Кронштадского рейда,59.9841226,29.7482334,
729593700,,39.3296443,3.1769804,
730570806,Faro de José Ignacio,-34.846267,-54.6328214,
731360980,,-12.2325697,49.3659163,
731422424,,42.8089641,10.7359341,
732707835,Old Lighthouse,52.7129577,1.6952752,
733230569,Stavneset fyr,63.1144881,7.6630584,
734131916,,39.3107691,3.0008073,
738680197,,43.6324349,7.1395943,
742454518,,34.3611119,134.0552136,
743240677,Grønningen fyr,58.0813852,8.0878942,
745595408,,20.7139727,70.9958937,
745736179,Lighthouse,16.08611,-86.8979201,
746305867,,59.5200165,16.9891664,
746458514,品川燈台,35.3415977,136.9941302,
752443273,日立灯台,36.5093639,140.6322922,
753902145,Faro di Isola Sant'Eufemia,41.8892122,16.1842616,
759752496,Råå fyr,55.9909019,12.740944,
760219584,Кадошский маяк,44.0982552,39.0366528,
761954108,西嶼燈塔,23.5625502,119.4690874,
763018929,,45.1128202,36.8748868,
763361151,Spectacle Island Lighthouse,43.9176718,-64.8031641,
763961342,,52.7985302,-4.4711859,
764391482,Baltiyskaya Kosa Range Rear light and VTS radar tower C3100.161,54.6299856,19.8855185,
765600499,Hải Đăng Mũi Kê Gà,10.6952301,107.9915499,
765752658,,56.7310424,37.1139463,
765752676,,56.7277934,37.1184893,
767131438,Kāingaroa automatic light,-43.7355325,-176.240387,
767131463,Durham Lighthouse,-44.0071542,-176.6788519,
767131521,Motutapu Light,-44.2270106,-176.2215668,
767675902,,39.3668162,3.2345611,
768563398,منارة زعفرانة,29.111667,32.665278,
768743279,,56.801969,54.1642285,
769447677,Lakeshore Light House,15.0989937,120.67051,
772404115,Uostadvario švyturys,55.3442063,21.2914354,
773401949,Hải đăng Bảy Cạnh,8.6667894,106.7060853,
774061276,,62.8263506,34.8374655,
774545853,Faro de Punta Abona,28.148187,-16.4271882,
776167346,Faro di Capo Circeo,41.2223373,13.0685641,
777906600,Far des Moscarter,39.1176743,1.5332222,
778127566,,55.9972176,14.6111961,
778158385,Far d'Alcossebre,40.2599682,0.3038063,
778613514,Boatswain Point Light,19.3833022,-81.4000007,
778613562,East End Light,19.3020184,-81.0992171,
778675416,Cayman Brac East End,19.7511635,-79.7235324,
793101252,,36.4576658,28.2207965,
793148588,Unterfeuer Scheelenkuhlen,53.8808405,9.2609864,
793774561,,-1.2742688,-90.4889826,
796592277,Faro de la Isla de Mouro,43.4732818,-3.755853,
797224465,Hargökalv,58.6066404,16.8734325,
797301859,,58.6276529,17.0297156,
797301860,,58.6256867,17.0195806,
799793198,Grönskär,59.2780186,19.0244062,
799793245,Österskär,59.2564822,18.9466436,
800906560,Blyth Pier Lighthouse,55.1164485,-1.486724,
801910554,Pagensand-Nord,53.7200884,9.4768046,
801910556,"Kollmar, Rear Lt",53.7267675,9.4840252,
802957297,East Light,43.959986,-59.7906134,
804159545,,45.2569601,-66.0451724,
804390759,Чесменский,64.7179107,36.5465254,
804608393,West Light,43.9319729,-60.0228385,
804851774,,36.6862177,15.1317862,
811491470,,42.8030888,-80.013077,
811518078,,42.797636,-80.0675913,
811567594,,42.7959979,-80.044262,
811570858,,42.7964783,-80.0665867,
814395139,Port Dover Lightstation,42.7811337,-80.201649,
817395082,Hogsty Reef,21.6939447,-73.8474018,
818424444,,49.0662738,-62.2598209,
819570129,,42.8851945,-79.2480873,
819653903,,42.9117115,-79.2427129,
819678181,,42.9271171,-79.2409992,
819684349,,42.9914807,-79.2159111,
820393992,Southerness lighthouse,54.8729255,-3.5952516,
822167615,,56.2837625,12.491919,
825232632,Gotska Sandön,58.394084,19.1930373,
826383904,Eddystone Lighthouse,50.18075,-4.2656389,
828392723,,59.8873999,29.914183,
829643554,,44.6241225,-63.5407754,
829644692,,44.6131107,-63.5359627,
830818636,,44.6397122,-63.9581085,
831201041,Split Point Lighthouse,-38.4680026,144.104468,http://splitpointlighthouse.com.au/
838592376,,-0.3798748,42.5546476,
838689156,Faro Punta Saborido,42.24772,-8.864133,
839715997,Loch Indaal Lighthouse,55.7447558,-6.3722062,
840600416,,8.4985084,-13.2966115,
840829617,Rinns of Islay Lighthouse,55.6731114,-6.5132529,
842056595,Faro de Laxe,43.2321421,-9.0112102,http://www.lighthousesofspain.es/es-es/faros/detalle?idFaro=44
842056707,Faro do Cabo Vilán,43.1603605,-9.2113864,http://www.lighthousesofspain.es/es-es/faros/detalle?tab=fic&IdFaro=188
842229051,,44.6261218,-63.5598277,
842886510,,44.3828417,-64.0482148,
842887528,,44.4395355,-64.0830337,
843124986,Märigrunds fiskefyr,62.5246029,21.0666416,
843503695,Cleft of the Rock Light,44.2905257,-124.1107656,
843511989,Pelican Bay Light,42.0417382,-124.2627626,
845838880,Tolvöregrund,60.2575709,18.627532,
845838881,Käringön,60.3037093,18.5356943,
845838882,Skeppsholmen,60.3259125,18.4854804,
845838883,Storskäret,60.3790965,18.2842962,
847297205,,-29.2224959,31.5041825,
848210194,Faro Año Nuevo,-54.6580367,-64.132323,
849496965,,55.6039179,10.607597,
849508105,,9.317587,79.3306451,
849572186,,43.4215066,3.605824,
849602615,Phare de Cap de l'Aiguille,35.8757985,-0.4885676,
850026052,,44.6406187,-63.5603504,
851562493,Gilkicker Point,50.7738938,-1.1414343,
851639875,,48.4498333,-71.0205961,
851668372,Caribou Island Lighthouse,47.3396809,-85.8258867,
851985014,East End Lighthouse,47.7538018,-85.5968517,
853157630,Perkwakwia Point Lighthouse,47.9424774,-84.9074154,
853516675,,48.4357215,-88.4804629,
853540193,,48.3394036,-88.6489801,
854508111,Otter Island Lighthouse,48.1116533,-86.0667327,
854547000,Gelbsand Oberfeuer,53.9847899,8.612903,
854547007,Gelbsand Unterfeuer,53.9720517,8.6248533,
854550221,,48.6036053,-88.1426369,
854821407,,48.7003878,-88.098965,
854975325,Otterndorf/Belum Unterfeuer,53.8353726,8.935749,https://www.leuchtturm-atlas.de/HTML/Belum_T.html
854975631,St. Margarethen Oberfeuer,53.88722,9.2487999,
854975669,"Pagensand, Front Lt",53.6959549,9.5087119,
854975740,Bützflethersand Oberfeuer,53.6348432,9.5173031,
854975879,Twielenfleth,53.605623,9.5577364,
854975896,Lühe Unterfeuer,53.5718274,9.6327014,
855152409,Peninsula Harbour Light,48.7193559,-86.4316997,http://www.lighthousedigest.com/Digest/database/uniquelighthouse.cfm?value=2942
855225474,,48.7150176,-86.4069891,
855264061,Cromer Lighthouse,52.9246805,1.3164926,
855427595,,48.9289993,-87.9289148,
855436094,,48.7517727,-87.5573953,
855438946,,48.8333635,-87.5203467,
855515494,,48.8250664,-87.5230235,
855537370,,48.8411115,-87.6910415,
855592391,,48.8251056,-87.5473545,
856616788,Stadersand Oberfeuer,53.6215619,9.530418,
856700724,Bubendey-Ufer Oberfeuer,53.5371485,9.9007718,
857958389,,49.101299,-68.1938937,
858908235,Bubendey-Ufer Unterfeuer,53.5397576,9.8861304,
858972544,,48.3032056,-88.9373802,
858974295,,48.1391927,-89.3032723,
858976008,,48.2354382,-89.0071609,
858985560,,48.2340226,-89.1734851,
859013754,,48.2923174,-88.8742149,
859072298,Altenwerder Unterfeuer,53.4964465,9.9399789,
859072320,Ellerholz Oberfeuer,53.4949362,9.9448647,
859072326,Altenwerder Oberfeuer,53.4950479,9.9400396,
859072329,Ellerholz Unterfeuer,53.4957727,9.9445293,
859429020,,10.1223977,99.8430958,
859486671,Altenbruch/Wehldorf Unterfeuer,53.8336151,8.7947866,https://www.leuchtturm-atlas.de/HTML/WehldoT.html
860138970,Faro Capo San Marco,39.8599532,8.4342546,
861015560,鼻頭角燈塔,25.1287245,121.9235312,
864309553,,44.1054944,-77.0675828,
864843728,,44.1670952,-77.0927774,
864852739,,44.1676998,-77.0859473,
865093923,,45.5261896,13.5663294,
865094092,,45.5261581,13.5668632,
865783874,,44.1532717,-77.3764489,
867000247,Faro dell'Isula de Malu Entu,39.9929544,8.3039394,
867661949,,44.0613038,-77.5817036,
867663481,,44.056282,-77.5971063,
867680906,,44.1055178,-77.5796113,
867690943,,44.102674,-77.5749183,
867693881,,44.1022777,-77.5743619,
867693962,,44.1058164,-77.579279,
867766354,,44.0217294,-77.7300964,
867770538,,44.0244608,-77.7020895,
867770984,,44.018705,-77.7210941,
867780008,,44.0324506,-77.6770827,
867798786,,44.0052476,-77.6829057,
867846354,,44.1478501,-77.5812392,
868613340,Esteiro de Foz,43.5723606,-7.2448618,
868613361,Porto de Foz,43.5695329,-7.2490236,
869834207,,46.2399875,-64.5109314,
869834209,,46.1889606,-64.5707283,
869834334,,46.2418281,-64.5300692,
869858033,Råskärsöns fyr,63.1969579,18.9086242,
870425741,,43.3903332,-65.6214909,
870822946,,49.8594791,-126.674116,
870822968,,49.864658,-126.7073048,
870823200,,49.776591,-126.6430722,
871741837,Fl G 5s 9m 5M,41.168672,9.4696682,
871816338,Fl W 5s 24m 11M,41.2159717,9.5168984,
872722213,Φάρος Αγίου Νικολάου,36.4511747,28.2280205,
872738110,Farol da Ponta da Barca,39.0935548,-28.0493799,
873551186,Lodbjerg Fyr,56.8234534,8.2627022,
874125324,,37.6609428,12.520656,
875193804,Hönö Huvud fyr,57.6894648,11.6059445,
876529286,Strynø Pier,54.9034338,10.6297077,
876679638,La Chocolatera,-2.189491,-81.0107154,
878547660,Cap Gaspé,48.7510591,-64.1626535,
878894496,Faro Colonia Del Sacramento,-34.4728176,-57.852269,
879228078,,49.0856859,-61.7006427,
879554164,,49.8640689,-64.5233206,
879631210,,49.9516166,-64.1493481,
879976694,,49.8340436,-64.3834629,
879980110,,49.8414655,-64.388325,
880015648,Cap-de-la-Table,49.3511959,-61.8956997,
880754498,,37.7868914,12.4393195,
880754562,,37.7874316,12.4367096,
882671215,,49.8136142,-64.3455901,
882679947,,49.812538,-64.3456579,
885066008,,59.9833333,29.7616667,
885864275,Тигр,42.9864894,131.7458121,
886881742,,48.4438532,-89.1775317,
886882237,,48.3930115,-89.2166018,
886887000,,48.4120207,-89.2057695,
886932422,,48.3684515,-89.1202267,
886957134,,48.4106101,-89.2051715,
886965357,,48.4448513,-89.1758663,
886971676,,48.4314036,-89.1976803,
887007225,,48.3499055,-89.2010119,
887089127,,48.3980235,-89.1999527,
887095745,,48.4326468,-89.1961017,
889222943,,43.14744,40.3418912,
890904473,Старый маяк,43.1475497,40.3424119,
891114739,Балюзэк,43.9222227,135.5198919,
892483456,Grisetåodde,56.5806207,8.5664531,
892498743,,42.7540625,16.8136349,
892673443,,33.5329941,126.5411337,
892683980,,33.5215417,126.545557,
892827373,Phare,-17.1151316,49.8092775,
893079883,Farol Barra Rio Ave,41.3366535,-8.749653,
893249188,Nootka Lighthouse,49.5926438,-126.615279,
895559775,Faro Rocchetta,45.3393299,12.3111454,
895762768,Unterfeuer Somfletherwisch,53.5696126,9.6399127,
895868960,Thyborøn Tange Nord Fyr,56.7059954,8.2233686,
896074423,Phare Carleton,49.7314873,-62.9426796,
896638055,,49.3912747,-63.5939486,
896706519,Phare de la pointe Colombi,36.4431792,0.9388152,
896706656,Маяк Шпанберга,43.8365204,146.9190937,
898003547,Wick North,58.4394511,-3.0818214,
898010613,Burghead Red,57.7013638,-3.5003892,
898010620,Lossiemouth,57.7236776,-3.2780934,
898010621,Burghead Green,57.7019,-3.49885,
898145435,Arbroath Lighthouse,56.5541459,-2.5827104,
898145439,Rosehearty,57.6995181,-2.1123101,
898145442,Rattray Head,57.6100591,-1.8162928,
898145444,Torry Range Rear,57.1385666,-2.0779829,
898145460,Peterhead North,57.4971515,-1.7726255,
898145469,Methil,56.1793167,-3.0079833,
898145473,North Queensferry Lighthouse,56.0082819,-3.394753,
898145479,Fife Ness,56.278833,-2.5858673,https://www.nlb.org.uk/lighthouses/fife-ness/
898145501,Gourdon Range Rear,56.8291408,-2.2865597,
898145504,Torry Range Front,57.1396436,-2.0749327,
898145520,Peterhead South,57.496483,-1.7755418,
898145526,Buckie Range Rear,57.6786635,-2.9558251,
898145540,Fish Quay Old Light,55.0092381,-1.4368502,
898145563,Tayport High Light,56.4528134,-2.8990571,
898184511,Todhead,56.8837524,-2.215223,
898239162,Noss Head,58.4790329,-3.0510132,
898239164,Phare de la Haize,48.6711454,-1.9783518,
898239168,Amer et feu du Bodic,48.8124,-3.0909333,
898239169,Clyth Ness,58.3094928,-3.212127,
901229754,Agger Tange Forfyr,56.7161721,8.2355194,
901266278,Vorupør Bagfyr,56.9579761,8.3707037,
902362459,Skommarskatens fyr,63.2040933,18.883292,
902373619,,59.9844787,29.80035,
904414653,Маяк Стирсудден,60.1857555,29.0299592,
905047797,,43.8666196,-78.8243889,
905419463,,43.8493761,-78.9282915,
905865031,Battery Point Breakwater Lighthouse,44.3602605,-64.2963602,
907248677,,45.1701051,-67.2101709,
907724995,,43.8953935,-78.5759765,
909248190,Faro de Punta Higuero,18.3619878,-67.2708086,
910790783,Cape Bojeador Lighthouse,18.5122731,120.5979031,
911602377,Faro delle Secche di Vada,43.3200995,10.3642246,
912816161,,49.8248898,-67.0060045,
913410207,Farol Chuí,-33.74195,-53.3730667,
913958684,Φάρος (Cape Skinari),37.9310142,20.7021467,
915612769,,58.8871104,-3.1778459,
915976574,,45.5990382,-73.4904911,
915977050,,45.5950727,-73.4928383,
918067063,,37.50073,13.07579,
918068058,,37.50247,13.07656,
918070334,,37.502223,13.078747,
919971546,Phare du Rocher-aux-Oiseaux,47.8381303,-61.1455435,
920270978,本州最西端の地,34.1100716,130.8624277,
920351831,,45.2601776,-80.1129336,
920376853,,45.328999,-80.0364208,
920391604,,45.3329046,-80.1699768,
920450228,,45.294582,-80.0581324,
921090580,,45.6427458,-73.2072221,
921096088,,45.6447162,-73.2061395,
924334517,,45.6868967,-73.4424489,
926393709,Uttan Lighthouse,19.2782842,72.7807331,http://www.dgllnoida.gov.in/mumbai/UTTAN.html
926466578,Kanhoji Angre Island Lighthouse,18.7032314,72.8134629,http://www.dgllnoida.gov.in/mumbai/KANHOJI.html
926620981,Farol de Alfanzina,37.0867467,-8.4426554,
926737937,,-33.9157698,25.6141183,
927485074,,-33.0274482,27.9174145,
927485109,Hood Point,-33.0407175,27.8987947,
927485123,,-33.0279628,27.9250406,
927670772,Bagacay Point Lighthouse,10.383199,124.0185041,
928125980,,35.6025667,133.090197,
928307672,角島灯台,34.3524916,130.8410478,
929170638,鶴御崎灯台,32.9325046,132.0828014,
930008912,佐田岬灯台,33.3430802,132.0149389,
930188070,Gäveskär,57.6614289,11.7691156,
930192650,Smörbådan fyr,57.6559083,11.8282642,
930194978,Stora Varholmen fyr,57.6953702,11.6995435,
937254525,,43.9373035,-76.8588475,
937255146,,43.947995,-76.7986737,
937259318,,43.9311907,-76.6381175,
937262893,Point Petre,43.8394645,-77.1527245,
937368348,,43.9978525,-77.6755541,
937373082,,43.9756623,-77.8760057,
937375001,,43.8995969,-77.5421214,
938142592,Phare du Titan,43.0465466,6.510236,
938149259,,49.2359213,-68.1287175,
938153884,,49.2480842,-68.1409246,
938165179,,49.2486941,-68.1383356,
939394536,Destruction Island Lighthouse,47.6743747,-124.4869714,
939758664,Ludington Light,43.9536385,-86.4693739,
940772102,Farol de Vila Real de Santo António,37.1867677,-7.4163131,
940950211,綠島燈塔,22.6765213,121.4663471,
940979826,,38.3199949,20.7663734,
941281424,,54.9601435,19.9785335,
942633223,,41.8432621,3.1255822,
942701132,,49.2559327,-68.0799738,
944237049,,46.6791902,37.7414657,
945102518,Rt Kabal,43.2248446,16.5192784,
947055375,,44.3054786,38.7058825,
947055475,,44.3561415,38.5192096,
947055695,,44.1877986,38.8860179,
951123798,,45.6900595,-73.4401734,
951252217,細島灯台,32.4233692,131.6853909,
956087759,,-26.6354762,15.1525754,
959095473,Sergipe,-10.9696367,-37.0363861,
961402279,Hundskärsknuv,59.5979281,19.1255629,
961407893,Mellgrundsknuven,59.6076252,19.0591105,
961530393,,35.0513563,34.0234255,
961988396,Невских ворот - Западный,59.913158,30.2343072,
961988427,Невских ворот - Восточный,59.9135812,30.2388132,
963329168,Årskobben,59.6610525,19.1610195,
963375804,Västerkobb,59.6612558,19.1715589,
966758484,Териберский,69.2523103,35.1556112,
967990618,Faro Cabo San Román,12.1896131,-69.9985805,
968360686,Craighill Channel Lower Range Rear Light,39.2290323,-76.3943995,
968953523,,38.5341408,-0.1342521,
968953524,,38.5352957,-0.1346432,
970996565,,44.3121629,-64.1683878,
972792239,Tranerodde,55.0456938,9.8516445,
973362033,Port Melbourne Front Light,-37.8417268,144.9293509,
973766056,Swakopmund Lighthouse,-22.6760547,14.5242022,
973813067,Beaver Point Lighthouse,48.7709607,-123.3670634,
976164581,Ventės rago švyturys,55.3409372,21.189884,
978139771,,44.2288411,-64.2739532,
979966834,,44.2372401,-64.3158076,
988981179,Alter Leuchtturm,53.6054547,9.5571154,
991919708,,-12.9679547,-38.5202503,
992796340,,52.467524,4.5425454,
993454873,Мишуков,69.0444998,33.0428068,
995677488,,45.3111145,-63.8057979,
996614464,Kollicker Ort,54.5623913,13.6792668,
1002108291,,37.0744947,-8.122963,
1007667143,,59.9702135,29.3023592,
1009513807,青柳楼の大灯籠,35.463328,133.053052,
1009865405,Portage River Entry (Keweenaw Waterway Lower Entrance),46.9687967,-88.4311675,
1009870497,Jacobsville Lighthouse (Private Residence),46.9779788,-88.413923,
1009907749,Eagle River Lighthouse,47.4135856,-88.2986226,http://www.lighthousefriends.com/light.asp?ID=223
1009958556,Gull Rock Lighthouse,47.4172031,-87.6638758,https://www.lighthousefriends.com/light.asp?ID=730
1009982172,Manitou Island Lighthouse,47.4197006,-87.5870182,https://www.lighthousefriends.com/light.asp?ID=731
1010026461,Sand Point (Baraga) Lighthouse,46.7834994,-88.4669257,https://www.lighthousefriends.com/light.asp?ID=230
1010036037,Huron Island Lighthouse,46.9631344,-87.9991624,https://www.lighthousefriends.com/light.asp?ID=729
1010045549,Big Bay Point Lighthouse,46.8413871,-87.6803391,https://www.lighthousefriends.com/light.asp?ID=574
1010059326,Fourteen Mile Point Lighthouse,46.9928925,-89.1257224,https://www.lighthousefriends.com/light.asp?ID=732
1010140990,Grand Island Harbor Rear Range Light,46.4368685,-86.6912792,https://www.lighthousefriends.com/light.asp?ID=570
1010143902,Grand Island North lighthouse,46.5595178,-86.6799277,http://www.lighthousefriends.com/light.asp?ID=725
1010148231,Grand Island East Channel Lighthouse,46.4566579,-86.6231227,https://www.lighthousefriends.com/light.asp?ID=726
1010179627,Munising Front Range Light,46.4150047,-86.6612604,http://www.lighthousefriends.com/light.asp?ID=569
1010180284,Grand Marais Harbor of Refuge Inner Light,46.6766361,-85.9713028,http://www.lighthousefriends.com/light.asp?ID=723
1010288345,Stannard Rock Lighthouse,47.1831852,-87.2252862,https://www.lighthousefriends.com/light.asp?ID=728
1011819365,Crisp Point Lighthouse,46.7529214,-85.2573217,http://www.lighthousefriends.com/light.asp?ID=722
1011833744,Point Iroquois Lighthouse,46.484316,-84.6323584,https://www.lighthousefriends.com/light.asp?ID=566
1011846466,Frying Pan Island Lighthouse,46.4993468,-84.3391507,https://www.lighthousefriends.com/light.asp?ID=721
1011851645,Middle Neebish (Lower Nicolet) Range Lighthouse,46.3247842,-84.1757231,https://www.lighthousefriends.com/light.asp?ID=839
1011878735,Round Island (St. Mary's River) Lighthouse,46.108754,-84.0198957,https://www.lighthousefriends.com/light.asp?ID=720
1011882170,Pipe Island Lighthouse,46.0158274,-83.8994688,http://www.lighthousefriends.com/light.asp?ID=719
1011891274,Six Mile Point Range Light,45.9925802,-83.8992282,https://www.lighthousefriends.com/light.asp?ID=1560
1012199410,,35.5261018,12.5417241,
1012228470,DeTour Reef Lighthouse,45.9484288,-83.9039298,https://www.lighthousefriends.com/light.asp?ID=716
1012228473,Spectacle Reef Lighthouse,45.7714165,-84.1400393,https://www.lighthousefriends.com/light.asp?ID=708
1012228478,Poe Reef Lighthouse,45.6941322,-84.3618258,https://www.lighthousefriends.com/light.asp?ID=709
1012228482,Fourteen Foot Shoal Lighthouse,45.6798993,-84.4344064,https://www.lighthousefriends.com/light.asp?ID=710
1012232474,Six Mile Point Range Rear Lighthouse,45.9993332,-84.3498856,https://www.lighthousefriends.com/light.asp?ID=1559
1015989176,Leuchtturm Bremerhaven,53.5463116,8.5700998,
1017093013,,45.5256611,-75.4102594,
1017716538,Harrison's Point Lighthouse,13.3085045,-59.6483749,
1018898690,Фар Нос Калиакра,43.3620543,28.4655278,
1018914830,Фар Екрене,43.320427,28.060559,
1018941839,Фар Свети Атанас,42.8543552,27.9023948,
1018941849,Фар Евксиноград,43.2166908,27.9868563,
1018941856,Фар Нос Галата,43.1701313,27.9448912,
1020955669,,63.1778032,14.6284642,
1022797328,,45.3906585,-80.1611516,
1023708425,,11.1250631,-63.9325735,
1025762906,,42.5276551,3.0886848,
1027109987,,56.1689167,15.59525,
1027297217,,22.5690205,59.5396808,
1029329683,Simpnäsklubb,59.892749,19.0799419,
1029352189,Östra Stendörren,59.182294,18.4922522,
1029397338,Kofoten,59.2235586,18.6182758,
1029397342,Grönö,59.2077557,18.565901,
1029397346,Kofotsgrund,59.2178016,18.6135129,
1030530369,Gävlehästen,59.8828953,19.0848224,
1030530381,Näskubben,59.8757765,19.0829412,
1030568795,Boveteskär,59.7333399,19.1827768,
1030568797,Lerskärsgrund,59.7376833,19.23505,
1030571982,Stabbogrund,59.5597909,18.6275288,
1030571985,Stabboudde,59.5623851,18.6293715,
1030596228,Tvikobben,59.3934134,19.0294274,
1030597815,Stenkobbsgrund,59.4302773,18.9524248,
1030597817,Pålkobb,59.4111327,18.9058001,
1030663100,Måsknuv,58.8569614,18.015065,
1030699092,Gräddö,59.7678506,19.0321976,
1030699121,Simpnäsgrynnan,59.8658881,19.0855023,
1030699122,Dejeudden,59.8576532,19.0841873,
1030699138,Tyvö,59.7755155,19.1223677,
1030699139,Tjockö,59.7553666,19.1032223,
1030703565,Fårholms-revet,59.7295037,19.1112904,
1030703570,Kapellskär,59.7182517,19.0791014,
1030703580,Marö,59.7031011,19.0610794,
1031302107,,46.6937314,-1.9526715,
1032313618,,53.6635787,9.5263649,
1032978687,Ålandskobb,59.6868419,18.9853483,
1032978688,Ålandsgrund,59.6820763,18.98346,
1032978690,Furusund,59.6654345,18.9352231,
1033001746,Ekören,59.4690126,18.4180074,
1033001748,Mjölkö,59.4566177,18.4275561,
1033001753,Lerviksudde,59.4532248,18.3874517,
1033001756,Östra Älgögrund,59.4453718,18.4162908,
1033001764,Ryssmasterna,59.5316063,18.5478026,
1033001766,Gullholmen,59.5233845,18.5208326,
1033001769,Nykvarnsholm,59.5122384,18.4942251,
1033001774,Sandkullen,59.5024786,18.5174352,
1033001776,Vallersvik,59.4977779,18.4592061,
1033001785,Gryten,59.618568,18.8185435,
1033001787,Yxlan,59.5905312,18.7942892,
1033001793,Växlet norra,59.586524,18.7279221,
1033001803,Växlet södra,59.5847251,18.7313771,
1033001808,Lunsen,59.5748003,18.6842542,
1033008551,Bjurögrund,59.4427844,18.4399153,
1033008568,Valöarna,59.4327159,18.4977441,
1033008574,Lindalen övre,59.4206775,18.501467,
1033028456,Västra Rönnholmen,59.4275977,18.3656936,
1033028460,Södernäs,59.3617991,18.4522968,
1033028467,Lagnögrund,59.358584,18.4150892,
1033028470,Tynningö,59.3714207,18.3891683,
1033028474,Lindalen nedre,59.4216793,18.485516,
1033028477,Stora Berteln,59.4253824,18.4112817,
1033037682,Värmdö-Garpen,59.3629226,18.3763635,
1033044031,Furuholmen,59.371713,18.3352506,
1033044037,Granholmen,59.3776595,18.294481,
1033044045,Bogesund,59.3808072,18.3040082,
1033048198,Björnsgrund,59.3664653,18.3105313,
1033048200,Stora Höggarnsbank,59.3741179,18.2797181,
1033048202,Lilla Höggarnsbank,59.3656343,18.2687318,
1033048204,Elfsviksgrund,59.3639859,18.2590061,
1033058275,Libertus,59.3322815,18.1764136,
1033068961,Getholmen,59.3007854,18.8745767,
1033068962,Smörasken,59.3004762,18.8688062,
1033068963,Yxhammaskobben,59.3133074,18.8102374,
1033068964,Gastholmsgrund,59.3182952,18.8108168,
1033068967,Sandhamns Stångskär,59.2773535,19.000052,
1033068970,Ådkubben,59.2637739,18.8964651,
1033068973,Stora Hästskär,59.2581886,18.8963954,
1033068976,Skötkobben,59.286577,18.8940887,
1033070541,Trollharan,59.3169703,18.7472377,
1033073620,Långholmen,59.3049249,18.7590716,
1033073624,Fjärdholmen,59.3559285,18.8304935,
1033073629,Klövholmen,59.3718491,18.7534175,
1033073630,Norra Kanholmen,59.3696715,18.7446213,
1033080035,Boda,59.3697915,18.6057853,
1033080045,Sandö Sugga,59.3840521,18.5714369,
1033080050,Nyvarp,59.4043866,18.5234371,
1033101005,Genböte,59.1317014,18.4299884,
1033101008,Stenholmen,59.128426,18.4223451,
1033101012,Jutholmen,59.1244125,18.4075759,
1033101020,Riksdalerskäret,59.1206518,18.4264265,
1033101028,Runö,59.2964034,18.7151269,
1033101030,Franska Stenarna,59.2478587,18.6654999,
1033101033,Fjärdhällan,59.1555416,18.5546952,
1033101040,Piltholmsknall,59.142995,18.4640525,
1033101047,Hummelkläpp,59.1401405,18.4390356,
1033101053,Svartgrund,59.2818135,18.867218,
1033101060,Vindalsö,59.2853743,18.8575916,
1033101066,Tegelhällan,59.2867321,18.7104698,
1033105556,Segholmen,59.1133937,18.4098504,
1033105561,Aspöskär,59.1141482,18.397126,
1033116553,Långgarn,59.0734131,18.2985709,
1033116554,Söderhäll,59.0119345,18.2463722,
1033116556,Mysingeholm,59.0028929,18.2579569,
1033116557,Älvsnabben,58.9782316,18.1863258,
1033116566,Torrbänken,59.1103886,18.367085,
1033116571,Kycklingen,59.1066132,18.3728788,
1033116577,Gålö,59.0936875,18.3490608,
1033119413,Östra Röko,58.9066752,18.082814,
1033119415,Örngrund,58.8973146,18.0244386,
1033122353,Viksten NV,58.792027,17.9454345,
1033122355,Landsorts Bredgrund,58.7301639,17.8764771,
1033125260,Gunnarstenarna,58.7750031,18.0523883,
1033177889,Cap Ténès منارة تنس,36.5495753,1.340587,
1033230851,Almagrundet,59.1546901,19.1255333,
1033231059,Revengegrundet,59.2509444,19.0128333,
1033235521,Svängen,59.2699444,18.9744444,
1033241197,Huvudskär,58.9629711,18.5682658,
1033246068,Svartklubben,60.1744126,18.8250647,
1033249493,Svenska Högarna,59.4437489,19.501752,
1033251175,Söderarm,59.7528279,19.406066,
1033251766,Tjärven,59.791555,19.3700572,
1033252486,Understen,60.2750958,18.9199452,
1033293776,,32.1646417,34.7932442,
1033293837,,32.1657897,34.7926941,
1034841734,,34.3667129,134.0610976,
1034841844,,34.3604278,134.0588573,
1035130689,Grisblänkan,58.7661642,17.8491224,
1035130700,Storpelles Holme,58.7787736,17.8642541,
1035130706,Grisskär,58.7806422,17.8493196,
1035139773,Ölandssten,58.7938079,17.8682023,
1035139789,Bottenholmen,58.7902783,17.8341858,
1035150488,Västra Röko,58.7893454,17.7796038,
1035150495,Kolguskär,58.8019895,17.7768785,
1035150504,Granklubben,58.7978147,17.7487576,
1035150513,Asenskallen,58.7829709,17.6982916,
1035150520,Skvallran,58.78856,17.7092439,
1035157738,Vattkluben,58.8240057,17.739995,
1035157745,Torsken,58.8249234,17.7288133,
1035157748,Södra Bergholmen,58.8312271,17.7554483,
1035157756,Fifång,58.8420694,17.7238351,
1035175832,Gålklubb,58.8791667,17.7161333,
1035175850,Stenskär,58.9057816,17.7135354,
1035175854,Regarn,58.9642216,17.7247792,
1035190116,Egelsholm,59.0070751,17.7126342,
1035190136,Notholmen,59.0545761,17.6849538,
1035197272,Farstanäs,59.0964246,17.6613718,
1035197287,Brandalsund,59.0998078,17.6783341,
1035197324,Norrviken,59.1058679,17.6855117,
1035204163,Fläsklösa,59.1271802,17.6841169,
1035204170,Halls Holme,59.1606088,17.6690644,
1036504010,Bjargtangaviti,65.5024596,-24.5317092,
1038134988,Žvejybos uosto rytinis,55.6604444,21.1541334,
1038135979,Žvejybos uosto vakarininis,55.660619,21.1531211,
1039114785,Bedarö,58.8961102,17.9594986,
1039154833,Branten,59.3756613,18.7151791,
1039158250,Brunsviksholmen,58.9180581,17.9777762,
1044596060,Leekerhoek,52.6365775,5.1980897,
1045711207,,46.4700416,-62.4217238,
1052815010,Nugget Point Lighthouse,-46.44812,169.8167989,
1052815014,Tauroa Lighthouse,-35.1844644,173.0577032,
1052815083,,-35.9062344,175.1149022,
1052815087,,-41.2597049,174.8637453,
1052815113,Brothers Island Lighthouse,-41.1032915,174.4417047,
1052815147,Cape Jackson Lighthouse,-40.9945701,174.3136265,
1052815187,,-34.4148176,173.0505153,
1052815236,Cape Egmont Lighthouse,-39.2762407,173.7549924,
1052815257,,-40.5047624,172.7134215,
1052815291,Castlepoint Lighthouse,-40.9004458,176.2314615,
1052815332,,-43.5873829,172.8081342,
1052815342,Point Kean lighthouse,-42.424114,173.7156631,
1052815438,Farewell Spit Lighthouse,-40.5460979,173.009405,
1052815540,,-36.4398,175.7861833,
1052815795,,-37.6069809,176.4199456,
1052815870,,-37.0504442,174.5032477,
1052815903,East Cape Lighthouse,-37.6889752,178.5481336,
1052816069,,-36.8269719,175.7140249,
1052816090,Puysegur Point Lighthouse,-46.1561045,166.6094422,
1052816127,,-36.605579,174.8974173,
1052816196,Point Jerningham Light,-41.2842666,174.803533,
1052816212,Cape Runaway,-37.5394005,177.9827614,
1052816245,,-36.278106,174.8211958,
1052816306,,-41.359355,174.847912,
1052816512,Rangitoto Lighthouse,-36.7819389,174.8224005,
1052816532,Steep Head Light,-43.7453217,173.1283623,
1052816627,Bean Rock,-36.8332938,174.8310676,
1052816731,,-40.775489,172.2175431,
1052816755,,-45.1125525,170.9816981,
1052816781,Separation Point,-40.7819889,172.99818,
1052816798,Taiaroa Head Lighthouse,-45.7736721,170.7287703,
1052816802,,-41.7494293,171.4659627,
1052816879,Gable End Foreland Light,-38.5237767,178.2893492,
1052816956,Karori Rock Light,-41.3436932,174.6518453,
1052816963,,-40.9240657,173.8349431,
1052816981,Cape Maria van Diemen,-34.476745,172.6449911,
1052816995,,-43.5871891,169.5541322,
1052817308,Flat Rock,-36.4450733,174.9246366,
1052817319,Ackers Point lighthouse,-46.8956025,168.1635343,
1052817346,Cape Brett Lighthouse,-35.1752574,174.3326209,
1052817376,Katiki Point Lighthouse,-45.3918842,170.8662094,
1052817417,Cape Saunders S end,-45.8809554,170.7285377,
1052817528,Tutukākā Lighthouse,-35.6115838,174.5461961,
1052817581,,-35.8444683,174.58122,
1052817586,Baring Head Lighthouse,-41.4080869,174.8711432,
1052817609,Kurakura Point Light,-41.182847,174.2026972,
1052817645,Kaipara North Head Lighthouse,-36.3906036,174.1235402,https://www.heritage.org.nz/the-list/details/7596
1052817703,Cape Karikari Light,-34.7830661,173.3973212,
1052817762,,-43.88997,172.9788738,
1052817794,Manuka Bay Lighthouse,-42.8833635,173.3173752,
1052817860,Boulder Bank Lighthouse,-41.2546798,173.2651327,
1052818010,Heyward Point,-45.75608,170.692037,
1052818017,Reef,-40.9235928,173.8335696,
1054461946,,17.6764566,83.2927269,
1054711348,Nansemond Lighthouse,36.9148099,-76.4451485,
1056995310,,51.3150215,12.2524113,
1059504458,​Phare du Cap Ghir منار رأس غير,30.6319744,-9.8823741,
1065401698,Faro de Cala Figueira,39.4574929,2.5223743,https://es.wikipedia.org/wiki/Faro_de_Cala_Figuera
1066115114,Skaddan South Lighthouse,59.5138965,-1.6526862,
1066446857,Skroo North Lighthouse,59.5521244,-1.6095722,
1068711113,,45.0406143,-74.6081513,
1069833244,,45.0148983,-74.664407,
1070463688,,43.3901587,4.8715119,
1074442258,,45.4962579,-74.1744367,
1074464398,,45.4958583,-74.1740573,
1074480524,CVL,45.4938107,-74.1793587,
1075383159,,36.8307833,-2.4849167,
1076936733,Bathurst Lighthouse,-31.9893545,115.5406793,
1079954655,Faro Cabo Blanco,-47.2023033,-65.7384954,
1080020407,حلق الوادي,36.8065598,10.3087683,
1080416237,,55.0164468,10.332762,
1080879696,,44.6205914,-64.0545667,
1082798213,Φάρος,37.5670035,22.7921525,
1082877553,Ballebro Fyr,54.9973736,9.6727268,
1084421421,,55.4169488,12.828032,
1084576666,,20.4765064,-97.0039153,
1086687093,,59.9475311,31.0287003,
1087301540,,-15.7654092,46.333354,
1087309589,,-15.7961241,46.3698775,
1087381773,,-12.2640233,48.6381682,
1087381793,,-12.2675788,49.2887556,
1087381798,,-12.2291267,49.3561506,
1087381812,,-14.5541748,47.60923,
1087381859,,-13.4251331,48.3633813,
1087381861,,-13.3201379,48.4706268,
1087381943,,-15.7155887,46.300494,
1087381956,,-14.6388964,47.746559,
1088598286,,48.4154749,-68.8927436,
1095108874,,44.5158011,-64.2326619,
1095111222,,59.9468534,31.0337579,
1096602147,,46.7439354,36.7764974,
1096602154,,46.762848,36.7881369,
1096602162,,46.7475028,36.7703993,
1097015698,,-4.0699915,39.6781598,
1097718606,Cooktown Lighthouse,-15.4608232,145.2553508,
1097931945,,-19.8817713,57.6501408,
1102251532,,10.3399623,-75.5809806,
1105482936,,59.9255856,29.7796869,
1108433798,,16.885107,42.5296551,
1111670952,,22.3361176,114.0223572,
1112107906,Bjuröklubbs fyr,64.4808812,21.5750049,http://www.bjuroklubb.se/
1112633831,,-20.1703667,57.5157545,
1112949801,Beachport Lighthouse,-37.4897071,140.0126086,
1113653902,Crown Point Light House,44.0298598,-73.4215535,
1113887642,Jussarö Lighthouse,59.790148,23.5497877,
1114955624,Port MacDonnell Lighthouse,-38.0560097,140.6664384,
1115684595,,59.8164005,10.5940394,
1115684853,Grinna fyr,64.7542863,10.9761243,
1115684867,Buholmråsa fyr,64.4016785,10.4530005,
1115684936,Kyrhaug fyr,63.3102804,8.226747,
1115684949,Lyngør fyr,58.635789,9.148314,
1115684973,Erkna fyr,62.5501657,5.9400215,
1115684981,Ryvingen fyr,57.9680682,7.4915798,
1115684989,Kvannhovden fyr,61.6971393,4.8313771,
1115685013,Torsvåg fyr,70.245522,19.499853,
1115685048,Nordøyan fyr,64.7984523,10.5475909,
1115685078,Terningen fyr,63.4937933,9.0394033,
1115685081,Strømtangen fyr,58.8367118,9.4642974,
1115685108,Storholmen fyr,62.6430447,5.9239051,
1115685117,Songvår fyr,58.014985,7.8097667,
1115685126,Hendanes fyr,61.9647017,5.03412,
1115685144,Fugløykalven fyr,70.3167506,20.1535096,
1115685152,Værøy fyr,67.6510416,12.7244406,
1115685168,Slåtterøy fyr,59.90805,5.067256,
1115685223,Jomfruland fyr,58.8651058,9.5963693,
1115685294,Hattholmen fyr,58.0034424,7.4494637,
1115685317,Skongsneset fyr,62.0325394,5.1237547,
1115685351,Bøkfjord fyr,69.8777068,30.1753627,
1115685381,Måløy-Skarholmen fyr,67.7680648,14.4014131,
1115685408,Marstein fyr,60.1306611,5.0091669,http://www.marsteinfyr.no/
1115685419,Bremstein fyr,65.5967029,11.2868203,
1115685428,Fladholmen fyr,58.9224067,5.555475,
1115685457,Haugjegla fyr,63.5332408,7.9626501,
1115685495,Flatflesa fyr,62.8384032,6.6891511,
1115685554,Kråkenes fyr,62.0347853,4.9856425,
1115685575,Vardø fyr,70.3887364,31.1567638,
1115685622,Ytterholmen fyr,66.0132894,11.6872608,
1115685701,Tvistein fyr,58.9380795,9.9363412,
1115685738,Haugsholmen fyr,62.1776466,5.3699095,
1115685773,Fruholmen fyr,71.0937228,23.9836861,
1115685779,Skrova fyr,68.1530436,14.6489269,
1115685783,Holmengrå fyr,60.8430151,4.6493852,
1115685816,Åsvær fyr,66.265045,12.2966443,
1115685850,Bjørnsund fyr,62.8956608,6.8158826,
1115685889,Flåvær fyr,62.3156019,5.5823893,
1115685921,Makkaur fyr,70.7067451,30.0786093,
1115685936,Utvær fyr,61.0371006,4.5099092,
1115685989,Træna fyr,66.4307817,11.9683467,
1115686041,Torbjørnskjær fyr,58.996325,10.781702,
1115686051,Kvitholmen fyr,63.023022,7.235114,
1115686142,Svinøy fyr,62.3275975,5.2674557,
1115686193,Helneset fyr,71.0616213,26.2220795,
1115686209,Geita fyr,61.2691607,4.8111752,
1115686329,Hestskjæret fyr,63.0845468,7.4924923,
1115686367,Torungen fyr,58.3988506,8.7902453,
1115686418,Runde fyr,62.4129434,5.5868901,
1115686425,Kjølneset fyr,70.8530439,29.2357531,
1115686527,Kya fyr,64.4642211,10.2117631,
1115686531,Asenvågsøya fyr,63.9419224,9.7716433,
1115686597,Grasøyane fyr,62.4307224,5.7590373,
1115686613,Anda fyr,69.0664417,15.1701367,
1115686619,Tennholmen fyr,67.3019949,13.4977717,
1115686627,Røværsholmen fyr,59.4516783,5.0692717,
1115686628,Gjæslingan fyr,64.7269962,10.8543205,
1115686642,Færder fyr,59.0267839,10.5245956,
1115686644,Grip fyr,63.2338728,7.6091261,
1115686660,Eigerøy fyr,58.430814,5.867622,
1115687099,Homborsund fyr,58.2539208,8.5295189,
1115687127,Slettnes fyr,71.0895689,28.2182628,
1115687136,Stabben fyr,61.600699,4.9551516,
1115687140,Hekkingen fyr,69.6015485,17.8297243,
1116410343,Old German Lighthouse,4.1005305,8.9765916,
1116410401,,4.1008716,8.9770503,
1117564373,Южный Гогландский маяк,60.011014,27.0070413,
1122795433,,49.8859687,-97.130671,
1123827230,Faro de Punta Charagato,10.8407849,-64.1562068,
1123906848,Wehldorf Oberfeuer,53.8300823,8.8017082,https://www.leuchtturm-atlas.de/HTML/WehldoT.html
1124066634,Faro Recalada,-38.9907911,-61.2599415,
1124747028,Faro Holandés,11.9521043,-66.6766568,https://los-roques.com/history-of-los-roques/216-modern-history
1124921372,Racon Gran Roque,11.9551991,-66.6906447,
1128314805,,6.9104819,134.1292067,
1129189242,Robe Lighthouse,-37.1643505,139.74449,
1129843956,,25.1562117,121.7568798,
1131733087,Cape Canaveral Lighthouse,28.460304,-80.543427,
1132429241,الجزيرة المنبسطة,37.1815684,10.3283122,
1133132841,ناظور رأس أنجلة,37.3445943,9.738753,
1133363161,,55.6728365,37.6911175,
1133379212,,43.2338695,-79.6858924,
1133807939,Far des Cap Blanc,39.3635181,2.7878042,
1134090614,,36.2859033,-5.2697852,
1134621894,,6.9558998,79.8446446,
1136085219,黑角頭燈塔 Cape Collinson Lighthouse,22.2616352,114.2569328,
1137333239,,48.0246884,-69.3486657,
1137364397,,48.1789277,-69.1594372,
1137367207,,48.1492628,-69.2389941,
1137374875,,48.0659064,-69.3862547,
1138887389,,31.6349548,34.4935082,
1139893802,منارة صيدا,33.5717819,35.3675419,
1140501933,Cape Forchu Lighthouse,43.7941238,-66.1553061,http://capeforchu.com
1140509915,,43.8192512,-66.1357869,
1140833414,Grabow Oberfeuer rot,54.2265074,13.3949197,
1140833417,Grabow Unterfeuer,54.2271605,13.3881068,
1141158680,Обратный Окуловский,64.5260503,40.5759565,
1141447490,,59.9011496,30.0965885,
1141447492,,59.904522,30.0921864,
1142642191,Far de Porto Cristo,39.5349581,3.34024,
1142907621,,47.7873306,-69.7861252,
1142908253,,47.911544,-69.8066737,
1142912025,Phare de Cap au Saumon,47.7705108,-69.9058613,https://www.pc.gc.ca/apps/dfhd/page_hl_fra.aspx?id=14992
1142940349,,47.7648163,-69.7977349,
1143636823,,43.6898469,-66.1445075,
1143642064,,43.637895,-66.0173734,
1143649349,,43.662432,-66.0453809,
1143661492,,43.6284977,-66.0269593,
1143662855,Seal Island Light house,43.3945923,-66.0141982,
1143664299,,43.702923,-66.0537718,
1143908371,منارة صور,33.2761542,35.1932384,
1144529143,Faro de Carapachibey,21.4480135,-82.9245666,
1144597749,,43.7031805,-65.9514318,
1145163715,,43.5978896,-65.7820784,
1145186590,,43.5191162,-65.7456157,
1146062502,,43.6627612,-65.8670101,
1146073663,Abbott's Harbour Lighthouse,43.6393378,-65.7933621,
1146252602,,43.4567709,-65.6549705,
1146262748,,43.4563716,-65.7435598,
1146264370,,43.4765772,-65.7198239,
1146347921,,43.3904216,-65.6219692,
1146976212,,43.4677423,-65.3789362,
1146980856,,43.4496656,-65.4706844,
1147040237,,60.8442031,30.4616358,
1147147096,,43.5073166,-65.3457712,
1147163292,,43.6223865,-65.2634002,
1147492562,,43.6555624,-65.098764,
1148743991,,47.6228154,-69.8618886,
1148754402,,47.7162497,-69.747734,
1148927176,Fraserburgh Breakwater Light,57.6918516,-1.9950843,
1149696500,Skifteskär fyr,57.6513001,11.8188635,
1149696893,Rivö fyr,57.6594553,11.8045466,
1151602541,Point of Ayre Winkie Lighthouse,54.4171933,-4.3637995,
1152562328,,37.9892111,12.4256111,
1154231556,,44.0522456,-66.1686415,
1156816887,,53.2333465,8.4771118,
1156887215,Cape St. Marys Lighthouse,44.0853029,-66.2104909,
1156969032,,43.8954386,-64.801443,
1156970653,,43.9357559,-64.7912475,
1156971864,,43.9191059,-64.8362218,
1156972071,,43.9230363,-64.8412442,
1156977862,,43.9179101,-64.8041186,
1158021821,Русская Кошка,64.6379873,178.0130021,
1162539123,Macquarie Lighthouse,-33.8539417,151.2851907,
1163031158,Faro di Ortona,42.359108,14.4085758,
1163053741,Faro di Rimini,44.0740766,12.5739504,
1165172451,,45.1112078,36.7396876,
1166240321,,34.2792642,135.070657,
1167179969,Far de la Mola,39.531695,2.3642231,
1169738162,南堤頭燈塔,24.2901711,120.5005358,
1169738473,南內堤燈塔,24.2851223,120.5118075,
1169741793,,24.2898955,120.516937,
1170470340,,38.0204086,12.3341334,
1172941876,Faro de Punta de Melenara,27.991743,-15.3679679,
1174906599,Farol da Ponta da Ferraria,37.8534644,-25.8502721,
1176108259,,-35.0644151,118.0573299,
1176339454,,46.7300401,-71.3291703,
1177539134,Old Spanish Lighthouse,14.3797735,120.5768851,
1179510583,,57.6201101,11.8228787,
1179864219,Faro,3.8085497,-77.1795847,
1180192093,мыс Бриннера,44.3431134,135.8403944,
1180855802,東龍洲 Tung Lung Island,22.2383167,114.2886333,
1180855805,,22.2587801,114.2961732,
1181050786,Grasselli Tower,41.4901738,-81.531313,
1181441663,Baixio do Capeta,-12.7503551,-38.6341436,
1181441748,No 32,-31.8688181,-52.1601429,
1181441852,Santa Isabel,-10.8245839,-36.9390684,
1181441968,Farol Naufragados,-27.8357367,-48.5697603,
1181442129,Farol do Calcanhar,-5.1611122,-35.4865404,
1181442255,No 7,-26.9121043,-48.6378634,
1181442345,,-23.9369699,-46.3089445,
1181442425,Cascalheira,-0.0225264,-51.0620106,
1181442621,Farol de Ilhéu Grande,-14.7701244,-39.0177242,
1181442709,Ponta Corumbau,-16.895802,-39.1138802,
1181442839,,-12.9662749,-38.5164159,
1181443085,Ponta do Varrido,-26.7833333,-48.585,
1181443176,"Ilha dos Amores, Salvaterra",-0.7528032,-48.5080137,
1181443231,,-23.0164519,-43.9739385,
1181443318,Farol de Porto Seguro,-16.4361664,-39.0639837,
1181443613,Ilha do Toque-Toque,-23.8556205,-45.5249069,
1181443640,Rio Calçoene,2.5066667,-50.8066666,
1181443682,Coroa Vermelha,-17.9673249,-39.2079933,
1181443716,Ilha Branca,-22.7308763,-41.8747003,
1181443792,Farol de Ponta Verde,-9.6659422,-35.6922414,
1181443822,Farol Ilha da Paz,-26.177267,-48.4846351,
1181443893,,-23.0861854,-44.2121274,
1181444097,,-16.0311654,-38.9230439,
1181444149,,-30.3191106,-51.1192174,
1181444212,,-9.6824858,-35.729446,
1181444332,,-23.0150412,-44.3267596,
1181444495,Fugitivo,0.1701216,-50.9184898,
1181444737,Farol do Recife,-8.0545458,-34.8652858,
1181444818,,-26.2417923,-48.6463725,
1181444893,,-23.0381344,-43.3033451,
1181444992,Ilha Mandi,-1.6116667,-49.1433333,
1181445206,Morro de Sao Paulo,-13.375917,-38.9153479,
1181445292,,-22.9126346,-43.1578283,
1181445383,Desertas,-30.5499769,-50.8371105,
1181445533,Itapeva,-29.556844,-49.8894518,
1181445670,Caete,-0.8064007,-46.6203916,
1181445728,Ilha do Frances,-20.9274569,-40.7551039,
1181445781,Farol do Aracagi,-2.450512,-44.1484367,
1181445866,"Ilha do Frade, Ponta de Nossa Senhora de Guadalupe",-12.8141829,-38.641335,
1181445955,,-22.9840751,-42.0373756,
1181446032,No 17,-31.699205,-51.9416425,
1181446126,Maragogi,-9.0133333,-35.2233333,
1181446270,,-28.4948464,-48.7482528,
1181446458,Ponta das Canas,-23.7279525,-45.3414427,
1181446486,Quatipuru,-0.7116667,-46.96,
1181446572,Banco Coroa Grande,-1.0283333,-48.595,
1181446697,Farol da Ilha Rasa,-23.0639243,-43.1458981,
1181446758,No 6,-31.7218538,-52.001629,
1181446848,No 102,-30.3448426,-51.0649373,
1181447118,,-2.8474636,-41.646496,
1181447218,,-12.9548528,-38.5115466,
1181447436,,-25.5020494,-48.4849556,
1181447568,Ilha Cotijuba,-1.2666667,-48.5633333,
1181447731,Farol de Mundau,-3.1764219,-39.3619596,
1181447792,Diamante No 6,-31.9546716,-52.0793826,
1181448115,,-27.5729602,-48.4226166,
1181448270,Ponta da Tabatinga,-6.045,-35.1116667,
1181448349,,-24.0087826,-46.3246987,
1181448449,Machadinho,-1.3762095,-48.6433731,
1181448564,Ponta do Valado,-20.4993427,-29.3216695,
1181448690,Pedra do Sal,-2.8038383,-41.7293394,
1181449025,Ponta do Catalão,-28.2093222,-48.6631054,
1181449416,,-23.7704099,-45.3759919,
1181449587,Ponta de Pirabura,-23.9426565,-45.2270659,
1181449767,Camapijo,-1.3635786,-48.6470694,
1181450140,Farol de Ilhéus,-14.8058804,-39.0258218,
1181450373,Gambeta No 9,-31.732082,-52.1355912,
1181450490,São Cristovão,-11.1302037,-37.1450283,
1181450597,Ilha de Coral,-27.9330225,-48.5426297,
1181450697,,-22.88456,-43.1338304,
1181450779,Morro do Pico,-3.8450354,-32.421383,
1181450898,Ponta das Cabeçudas,-26.926195,-48.6227492,
1181451113,Simao Grande,-0.2572198,-48.4015267,
1181451222,,-20.5086259,-29.3154847,
1181451499,,-17.1,-39.1666667,
1181451762,Estreito,-31.88,-51.7716667,
1181451967,Ponta do Tubarao,-5.0662695,-36.4953157,
1181452241,,-23.993948,-46.2912189,
1181452357,Joanes,-0.8812038,-48.5077417,
1181452434,,-22.9643824,-43.8882893,
1181452494,Aracati,-4.4087744,-37.7698195,
1181452574,Ponta do Mutá,-13.8795649,-38.9458936,
1181452663,Barra do Pote,-13.0192626,-38.6443204,
1181452950,No 15,-26.9020008,-48.6534822,
1181453290,,-23.0233596,-44.1160823,
1181453368,Cabo Orange,4.4296338,-51.5559008,
1181453643,,-32.1872376,-52.0746728,
1181453837,,-9.6564552,-35.7257,
1181454041,,-3.6989066,-38.4822658,
1181454126,,-22.9551767,-43.857626,
1181454215,Colares,-0.9180189,-48.2921656,
1181454313,Barra do Tombo,-17.7666004,-39.204743,
1181454393,,-16.0286572,-38.9219871,
1181454458,Farolete Barba Negra,-30.5336764,-51.1412959,
1181454554,Novo Farol do Cabeço do São Francisco,-10.4902232,-36.3864699,
1181454747,,-23.0274171,-44.3129407,
1181455106,Guaxindiba,-21.465,-41.0433333,
1181455354,,-30.0945362,-51.2562635,
1181455453,Farol Norte,-8.0444243,-34.8503194,
1181455595,,-26.2647151,-48.6769681,
1181455722,,-22.9985981,-43.9369282,
1181455856,Ilha das Araras,-1.8108632,-50.1488672,
1181456167,Taia,0.6537656,-50.2926848,
1181456266,Ponta Alambique,-12.8396174,-38.7937885,
1181456363,,-22.9343148,-43.1463773,
1181456452,Arambare,-30.9355843,-51.4598771,
1181456551,Pitimbu,-7.465,-34.7933333,
1181456927,Ilha do Apeu,-0.9102729,-46.1861887,
1181457078,Farol de Pau-a-Pino,-23.0986522,-44.1192377,
1181457322,Saubara,-12.74,-38.7183333,
1181457530,No 9,-31.7175497,-51.9872598,
1181457646,Porto de Pedras,-9.1567917,-35.2980317,
1181457769,,-28.4963812,-48.7450459,
1181457896,,-23.2249812,-44.3463081,
1181458134,Curuçá,-0.5647816,-47.7660373,
1181458291,Laje da Conceicao,-24.2370189,-46.6905794,
1181458428,Pirajuba,-2.2116048,-44.4034125,
1181458550,Vitoria,-20.2527011,-40.2865765,
1181458672,No 8,-31.7163084,-51.9878767,
1181458756,Porto de Suape,-8.3925597,-34.9471171,
1181458842,Farol de Itapuã,-30.3851719,-51.0595564,
1181459158,Alcantara,-2.4099203,-44.4177527,
1181459318,Farol de Jericoacoara,-2.788047,-40.4996302,
1181459419,,-12.9286984,-38.5196123,
1181459577,,-30.3776385,-51.0616039,
1181459723,,-23.1601122,-44.6636749,
1181460229,Morro Grande,-20.3026055,-40.310072,
1181460476,Ponta de Itapage,-2.8716667,-39.9433333,
1181460667,Farolete Baleias No 7,-31.9182231,-52.1187966,
1181461453,Farol Bacopari,-6.3745133,-34.9920268,
1181461840,Rio Arrozal,-1.4591772,-48.7026441,
1181462127,Enseada dos Portugueses,-20.5080914,-29.3153576,
1181462395,Ilha de Santana,-2.2704168,-43.6240057,
1181463008,Farol de Imbituba,-28.2338309,-48.64666,
1181463417,Pontal,-4.9400339,-37.1451945,
1181463628,,-23.7579411,-45.3513089,
1181463808,Aquipelago de Alcatrazes,-24.095,-45.7033333,
1181464000,Rio Doce,-19.6511426,-39.8254993,
1181464131,Ilhota de Contas,-14.2725477,-38.9867794,
1181464287,Coroa dos Patos No 4,-31.7166399,-52.0721368,
1181464483,Camacari,-12.74213,-38.1491558,
1181464632,,-27.7688514,-48.6155813,
1181465719,Ponta Tijoca,-0.5569852,-47.8974889,
1181465944,Calheta,-20.5081766,-29.3096633,
1181466126,No 3,-31.7971558,-52.1932142,
1181466537,Ponta da Gameleira,-5.2201414,-35.4226578,
1181466745,,-23.994249,-46.3064535,
1181466871,,-0.0685157,-51.1312158,
1181467059,Morro Branco,-4.1588088,-38.1078214,
1181467165,Morro Taipus,-13.9560111,-38.9420311,
1181467373,Quilombo,-31.4426943,-51.7764556,
1181467598,Farol da Pedra da Galé,-27.1816414,-48.4078623,
1181467772,Taipu,-0.6618983,-48.0434877,
1181468211,Ponta Catoeiro,-17.8669888,-39.2696165,
1181468353,Atafona,-21.6253221,-41.0135433,
1181468466,,-32.1889801,-52.080475,
1181469213,Ponta da Sela,-23.8883333,-45.4616667,
1181469383,Bailique,0.99,-49.9483333,
1181469524,Farol de Abrolhos,-17.9648083,-38.694069,
1181469671,Ilha dos Papagaios,-22.3830271,-41.7587317,
1181470119,Ilha Caiobá,-25.8528197,-48.5355503,
1181470298,,-23.0541875,-44.2686428,
1181470666,Ilha do Pacotes,-20.3519868,-40.2504484,
1181471311,,-9.6948697,-35.7603431,
1181471557,,-22.9600833,-43.9508599,
1181471684,Boiucu,-1.8083333,-50.3066667,
1181472145,Cabeca de Negro,-12.8274762,-38.8558194,
1181472527,Ponta de Pedras,-7.63,-34.8116667,
1181472641,,-26.2255241,-48.6432465,
1181472821,Ilha Joroca,-1.6466667,-49.2283333,
1181473453,No 11,-31.7100083,-51.9685725,
1181473688,Farol de Capao da Canoa,-29.74495,-50.0047498,
1181473833,,-23.2937766,-44.5055396,
1181473984,Ponta Marapanim,-0.580193,-47.5840348,
1181474127,,-22.9288475,-43.7139433,
1181474421,,-20.3108463,-40.2817802,
1181474560,Cabo Frio,-23.0134133,-42.0007454,
1181475035,Canal da Feitoria No 5,-31.7241884,-52.0037406,
1181475420,No 97,-30.3469024,-51.0597305,
1181475598,Ponta Grossa,-23.7771478,-45.2311855,
1181475749,Farol do Sol,-5.7506329,-35.1967078,
1181475890,,-23.9254411,-46.3278429,
1181476027,Ilha do Medo,-2.5225346,-44.3654324,
1181476424,Farol do Trapiá,-2.8630705,-40.8602878,
